[{"id":"00371f90-ab6b-46a9-95cf-1641495d47ab","name":"Caffeine Pit \u5496\u5561\u56e0\u5b50","city":"taichung","wifi":5,"seat":4,"quiet":4.5,"tasty":4.5,"cheap":5,"music":5,"url":"","address":"408\u53f0\u4e2d\u5e02\u5357\u5c6f\u5340\u7cbe\u8aa0\u8def594-1\u865f","latitude":"24.14099100","longitude":"120.65495400","limited_time":"","socket":"","standing_desk":"","mrt":"","open_time":""},{"id":"004c4a03-ca13-4eaa-8c67-c4199ff374df","name":"\u7aa9\u67e2\u5496\u5561","city":"taichung","wifi":5,"seat":4,"quiet":4,"tasty":5,"cheap":4,"music":5,"url":"https:\/\/www.facebook.com\/WoDihouse\/","address":"\u53f0\u4e2d\u5e02\u897f\u5c6f\u5340\u674f\u6797\u8def27\u865f","latitude":"24.16777300","longitude":"120.64203940","limited_time":"","socket":"yes","standing_desk":"","mrt":"","open_time":"\u4f4e\u6d88\u4e00\u676f\u98f2\u54c1\/\u4eba\u3002\u7981\u7528\u5916\u98df"},{"id":"02099240-5fc8-45a1-a042-071aea5b27df","name":"Michaelis\u57f7\u4e8b\u55ab\u8336","city":"taichung","wifi":5,"seat":3,"quiet":4,"tasty":5,"cheap":3,"music":5,"url":"https:\/\/www.facebook.com\/Michaelis.tw\/","address":"\u53f0\u4e2d\u5e02\u5317\u5340\u5149\u5927\u885726\u865f","latitude":"24.14983000","longitude":"120.67693900","limited_time":"maybe","socket":"yes","standing_desk":"no","mrt":"","open_time":"12:00-17:40\u300118:30-20:30"},{"id":"02a10fe6-b7f6-4d91-8472-c57fcbafa0df","name":"Cheers Cafe","city":"taichung","wifi":5,"seat":4,"quiet":4,"tasty":5,"cheap":5,"music":5,"url":"https:\/\/m.facebook.com\/CheersCafeTaiwan\/","address":"\u53f0\u4e2d\u5e02\u5357\u5c6f\u5340\u74b0\u4e2d\u8def\u56db\u6bb5303-1\u865f","latitude":"24.13740470","longitude":"120.62319880","limited_time":"no","socket":"maybe","standing_desk":"no","mrt":"","open_time":"\u5468\u672b\u6216\u5927\u578b\u805a\u6703\u5ef6\u9577\u71df\u696d\u6642\u9593"},{"id":"040ae529-e2c0-4d22-bbd4-350cbcbaa4e2","name":"\u83ef\u6cf0\u5496\u5561","city":"taichung","wifi":4,"seat":5,"quiet":5,"tasty":5,"cheap":4,"music":5,"url":"","address":"\u53f0\u4e2d\u5e02\u4e2d\u5340\u4e09\u6c11\u8def\u4e8c\u6bb518\u5df732\u865f","latitude":"24.13996540","longitude":"120.67814030","limited_time":"","socket":"","standing_desk":"","mrt":"","open_time":""},{"id":"0452e12c-7af0-46ff-a2eb-5ae8861afe3c","name":"Caf\u00e9 LuLu \u81ea\u5bb6\u70d8\u7119\u4efb\u6027\u5496\u5561\u9928","city":"taichung","wifi":5,"seat":5,"quiet":4,"tasty":4,"cheap":4,"music":4,"url":"https:\/\/www.facebook.com\/cafelulu2014\/","address":"\u53f0\u4e2d\u5e02\u897f\u5340\u5927\u58a9\u5341\u885770\u865f","latitude":"24.14787790","longitude":"120.65249240","limited_time":"no","socket":"maybe","standing_desk":"yes","mrt":"","open_time":""},{"id":"05482de3-516c-4f50-8a99-2dc8c6ac81e0","name":"\u6e05\u6c34\u6563\u6b65","city":"taichung","wifi":5,"seat":5,"quiet":4,"tasty":5,"cheap":5,"music":4.5,"url":"https:\/\/www.hsabc.com.tw\/","address":"436\u53f0\u4e2d\u5e02\u6e05\u6c34\u5340\u6587\u660c\u885718\u865f","latitude":"24.26989110","longitude":"120.57698810","limited_time":"no","socket":"maybe","standing_desk":"no","mrt":"","open_time":""},{"id":"0612f66c-93f3-478f-abcc-e3d3eb199a68","name":"\u4e2d\u5cf6 GLAB X Coffee Stopover R","city":"taichung","wifi":0,"seat":0,"quiet":0,"tasty":0,"cheap":0,"music":0,"url":"https:\/\/www.facebook.com\/graphicmatter\/","address":"\u53f0\u4e2d\u5e02\u2ec4\u5340\u5e9c\u5f8c\u885738-8\u865f","latitude":"24.13708100","longitude":"120.67684440","limited_time":"no","socket":"no","standing_desk":"no","mrt":"","open_time":""},{"id":"06a67809-1b63-444e-b6c1-364d8fc8a060","name":"\u76ee\u89ba\u5496\u5561 urban","city":"taichung","wifi":0,"seat":5,"quiet":5,"tasty":4,"cheap":3,"music":5,"url":"","address":"\u53f0\u4e2d\u5e02\u897f\u5c6f\u5340\u5927\u6069\u88578\u865f","latitude":"24.15827630","longitude":"120.64867540","limited_time":"no","socket":"maybe","standing_desk":"","mrt":"","open_time":""},{"id":"078bc07e-2a5d-4a02-9288-ac0923be0531","name":"Toyohara","city":"taichung","wifi":5,"seat":5,"quiet":4,"tasty":0,"cheap":3,"music":5,"url":"https:\/\/www.facebook.com\/ToyoharaCoffeeRoasters\/","address":"\u53f0\u4e2d\u5e02\u8c50\u539f\u5340\u6e90\u8c50\u8def42\u865f","latitude":"24.25214800","longitude":"120.71588300","limited_time":"no","socket":"no","standing_desk":"yes","mrt":"","open_time":""},{"id":"07b39ba4-74ca-42b8-8395-b6c447b104f1","name":"\u6668\u7ffc\u5496\u5561 ","city":"taichung","wifi":0,"seat":0,"quiet":0,"tasty":0,"cheap":0,"music":0,"url":"","address":"436\u53f0\u4e2d\u5e02\u6e05\u6c34\u5340\u4e2d\u8208\u885710\u865f","latitude":"24.27116560","longitude":"120.57802890","limited_time":"","socket":"","standing_desk":"","mrt":"","open_time":""},{"id":"08276825-558c-47f6-939b-4de0384a1d54","name":"\u8452 \u756b\u4e00\u676f\u5496\u5561","city":"taichung","wifi":5,"seat":5,"quiet":5,"tasty":5,"cheap":3,"music":4,"url":"https:\/\/www.facebook.com\/HungDrawACupOfCoffee\/","address":"\u53f0\u4e2d\u5e02\u592a\u5e73\u5340\u65b0\u5b89\u885788\u865f","latitude":"24.16021760","longitude":"120.70986580","limited_time":"no","socket":"maybe","standing_desk":"yes","mrt":"","open_time":""},{"id":"0a20ac05-b481-4bda-b9cf-eafef4ff2d25","name":"\u5c0a\u4efb\u5496\u5561","city":"taichung","wifi":5,"seat":5,"quiet":5,"tasty":5,"cheap":3,"music":5,"url":"https:\/\/www.facebook.com\/respectivecoffee\/","address":"\u53f0\u4e2d\u5e02\u897f\u5340\u6c11\u6b0a\u8def229\u5df721\u865f","latitude":"0.00000000","longitude":"0.00000000","limited_time":"maybe","socket":"yes","standing_desk":"yes","mrt":"","open_time":""},{"id":"0ab312af-bfe5-44d5-a659-ebf9824c1afe","name":"Mh\u5496\u5561","city":"taichung","wifi":3,"seat":5,"quiet":4,"tasty":4,"cheap":5,"music":5,"url":"https:\/\/www.facebook.com\/pg\/mhjuicerycafe\/about\/?ref=page_internal","address":"\u53f0\u4e2d\u5e02\u5317\u5c6f\u5340\u8208\u5b89\u8def\u4e00\u6bb5238\u865f","latitude":"24.17155100","longitude":"120.69444300","limited_time":"no","socket":"maybe","standing_desk":"no","mrt":"","open_time":""},{"id":"0b7d7cd0-cda1-42e5-ba82-646cbed3e5ba","name":"\u9435\u6728 Ironwood","city":"taichung","wifi":5,"seat":4.5,"quiet":5,"tasty":5,"cheap":4.5,"music":5,"url":"https:\/\/www.facebook.com\/Tmcoffe\/","address":"\u53f0\u4e2d\u5e02\u9f8d\u4e95\u5340\u65b0\u8208\u8def9\u5df710\u865f","latitude":"24.18097790","longitude":"120.59134680","limited_time":"no","socket":"maybe","standing_desk":"no","mrt":"","open_time":"\u5e73\u65e513:00-18:00(\u9031\u4e09\u516c\u4f11) \u5047\u65e511:00-17:00"},{"id":"0b846b1b-606f-4cdd-a770-5b19d23e9dee","name":"\u62fe\u5e74\u5496\u5561Coffee Decade ","city":"taichung","wifi":5,"seat":5,"quiet":5,"tasty":4.5,"cheap":4,"music":5,"url":"https:\/\/www.facebook.com\/CoffeeDecade\/","address":"\u53f0\u4e2d\u5e02\u897f\u5340\u5411\u4e0a\u8def\u4e00\u6bb5289\u5df72\u865f","latitude":"24.14649050","longitude":"120.65823950","limited_time":"no","socket":"yes","standing_desk":"no","mrt":"","open_time":"12:00-18:00"},{"id":"0c7cb15d-762f-4435-89be-c34b947b1dba","name":"\u6a02\u5561\u6a02\u838a\u5712\u5496\u5561","city":"taichung","wifi":5,"seat":5,"quiet":5,"tasty":5,"cheap":5,"music":5,"url":"https:\/\/www.facebook.com\/RomanorCaffe\/","address":"\u53f0\u4e2d\u5e02\u897f\u5340\u83ef\u7f8e\u897f\u8857\u4e00\u6bb574\u865f","latitude":"24.15452150","longitude":"120.65908220","limited_time":"no","socket":"yes","standing_desk":"no","mrt":"","open_time":"08:00 - 20:00"},{"id":"0c88cba7-dba7-4dcb-8980-8886a79513dd","name":"tutti\u7763\u918d\u5496\u5561","city":"taichung","wifi":4,"seat":4,"quiet":4,"tasty":4,"cheap":4,"music":4,"url":"https:\/\/www.facebook.com\/tuttitutticafe\/","address":"\u53f0\u4e2d\u5e02\u4e2d\u5340\u4e2d\u5c71\u8def247\u865f","latitude":"24.14221360","longitude":"120.67795150","limited_time":"no","socket":"maybe","standing_desk":"","mrt":"","open_time":""},{"id":"0d674e6a-8cac-4a7a-8d2a-3b271453ab55","name":"Zeller Coffee","city":"taichung","wifi":5,"seat":4,"quiet":4,"tasty":5,"cheap":4,"music":5,"url":"https:\/\/www.facebook.com\/zellercoffee\/","address":"\u53f0\u4e2d\u5e02\u5357\u5c6f\u5340\u5927\u58a9\u5341\u4e00\u8857154\u865f","latitude":"24.14895360","longitude":"120.65145070","limited_time":"maybe","socket":"yes","standing_desk":"no","mrt":"","open_time":""},{"id":"0e7da749-fe56-4445-b0d3-46febac45a72","name":"Yasumi Cafe","city":"taichung","wifi":0,"seat":5,"quiet":4.5,"tasty":5,"cheap":4,"music":5,"url":"https:\/\/www.facebook.com\/YasumicafeTaichung\/?fref=ts","address":"\u5357\u5340\u5fe0\u660e\u5357\u8def809\u865f \u53f0\u4e2d\u5e02","latitude":"24.12233010","longitude":"120.66131550","limited_time":"no","socket":"","standing_desk":"","mrt":"","open_time":""},{"id":"0eccd41d-b0f7-441d-a038-a8d2b35e75af","name":"\u98df\u3044\u3057\u3093\u574a","city":"taichung","wifi":4,"seat":3,"quiet":3,"tasty":5,"cheap":3,"music":5,"url":"https:\/\/www.facebook.com\/kuishinbou.wonda\/","address":"\u53f0\u4e2d\u5e02\u4e94\u6b0a\u5357\u8def278\u5df725\u865f","latitude":"24.12318880","longitude":"120.67080650","limited_time":"maybe","socket":"maybe","standing_desk":"no","mrt":"","open_time":""},{"id":"0ed5307f-dd4d-42f6-ade1-27fbd6806213","name":"\u8449\u6842\u82f1\u5496\u5561","city":"taichung","wifi":0,"seat":5,"quiet":5,"tasty":5,"cheap":5,"music":5,"url":"https:\/\/www.facebook.com\/yehguiying\/","address":"\u53f0\u4e2d\u5e02\u897f\u5340\u7cbe\u7f8e\u885752\u865f1\u6a13","latitude":"24.15209240","longitude":"120.65370750","limited_time":"","socket":"","standing_desk":"","mrt":"","open_time":""},{"id":"128de46e-1c40-4d8b-b3cd-43e250fb1cf7","name":"\u9e7f\u9ede\u5496\u5561 \u9010\u65e5","city":"taichung","wifi":5,"seat":5,"quiet":5,"tasty":5,"cheap":4,"music":5,"url":"","address":"\u53f0\u4e2d\u5e02\u8c50\u539f\u5340\u5fe0\u5b5d\u8857105\u5df745\u865f","latitude":"24.25296300","longitude":"120.71460900","limited_time":"no","socket":"maybe","standing_desk":"yes","mrt":"","open_time":"\u5df2\u65bc2022\/9\/30\u6c38\u4e45\u6b47\u696d"},{"id":"1365d049-adbf-4c50-86e5-7648d24c5a1b","name":"5\u6625\u5496\u5561","city":"taichung","wifi":5,"seat":5,"quiet":4,"tasty":5,"cheap":4,"music":5,"url":"https:\/\/www.facebook.com\/5chun\/","address":"\u53f0\u4e2d\u5e02\u897f\u5340\u4e94\u6b0a\u4e00\u8857162\u5df72\u5f045\u865f","latitude":"24.13970870","longitude":"120.65829060","limited_time":"no","socket":"yes","standing_desk":"no","mrt":"","open_time":""},{"id":"14778446-de53-410c-9b7d-726a9c3da064","name":"85\u5ea6C(\u6e05\u6c34\u5e97)","city":"taichung","wifi":0,"seat":0,"quiet":0,"tasty":0,"cheap":0,"music":0,"url":"","address":"436\u53f0\u4e2d\u5e02\u6e05\u6c34\u5340\u4e2d\u5c71\u8def339\u865f","latitude":"24.27171200","longitude":"120.57627000","limited_time":"","socket":"","standing_desk":"","mrt":"","open_time":""},{"id":"14df058b-241d-4dbf-8cef-8404851aa859","name":"\u8278\u7530 \u7a7a\u9593","city":"taichung","wifi":5,"seat":5,"quiet":5,"tasty":5,"cheap":5,"music":5,"url":"https:\/\/www.facebook.com\/mellow.club1316\/","address":"\u53f0\u4e2d\u5e02\u5317\u5340\u80b2\u5fb7\u8def131\u5df76\u865f","latitude":"24.15693030","longitude":"120.67422880","limited_time":"no","socket":"maybe","standing_desk":"yes","mrt":"","open_time":"10:00 - 22:00"},{"id":"154617e4-5e8c-4382-9274-ca26165d50f4","name":"\u624b\u6a02 S.L CAF'E","city":"taichung","wifi":4,"seat":5,"quiet":5,"tasty":5,"cheap":3,"music":0,"url":"https:\/\/www.facebook.com\/s.lcafeonly\/","address":"\u897f\u5c6f\u5340\u798f\u6797\u8def80\u865f Taichung, Taiwan","latitude":"24.19172320","longitude":"120.61700070","limited_time":"no","socket":"no","standing_desk":"no","mrt":"","open_time":""},{"id":"1549e606-7a10-4ed0-a0c7-0b95dc5dd126","name":"THETA\u5fb7\u5e0c\u9054\u5496\u5561","city":"taichung","wifi":4,"seat":5,"quiet":4,"tasty":5,"cheap":3,"music":5,"url":"https:\/\/www.zentheta.com.tw\/?fbclid=IwAR1mTf9x9fFQGv7th7-7bYKVKWu6h2WED2QZG8fNW6NNxWnGnwPxGtknFOU","address":"\u53f0\u4e2d\u5e02\u897f\u5340\u4e2d\u8208\u885747\u865f","latitude":"24.14537850","longitude":"120.66305140","limited_time":"maybe","socket":"no","standing_desk":"yes","mrt":"","open_time":""},{"id":"173314a1-3b51-44ac-a0a1-043f2fa1d805","name":"\u627e\u8def\u5496\u5561","city":"taichung","wifi":4,"seat":4,"quiet":3,"tasty":5,"cheap":3,"music":4,"url":"https:\/\/www.facebook.com\/findthewaycafe\/","address":"\u53f0\u4e2d\u5e02\u5317\u5340\u53f0\u4e2d\u5e02\u5317\u5340\u5fb7\u5316\u8857320\u865f","latitude":"24.16167800","longitude":"120.68192800","limited_time":"","socket":"","standing_desk":"","mrt":"","open_time":""},{"id":"188b5789-59fc-4c8f-835e-374196ccc559","name":"\u897f\u6210\u73c8\u7432","city":"taichung","wifi":0,"seat":5,"quiet":5,"tasty":5,"cheap":5,"music":5,"url":"https:\/\/www.facebook.com\/nishinarigo\/","address":"\u53f0\u4e2d\u5e02\u897f\u5340\u5927\u660c\u8857214\u865f","latitude":"24.14595930","longitude":"120.65234290","limited_time":"no","socket":"yes","standing_desk":"yes","mrt":"","open_time":""},{"id":"18906129-d396-4cc4-9be6-1ea5f911af42","name":"dotz coffee roaster","city":"taichung","wifi":0,"seat":0,"quiet":0,"tasty":0,"cheap":0,"music":0,"url":"","address":"401\u53f0\u4e2d\u5e02\u6771\u5340\u9032\u5316\u8def218\u865f","latitude":"24.14945860","longitude":"120.69455510","limited_time":"","socket":"","standing_desk":"","mrt":"","open_time":""},{"id":"18c941f9-29a7-42e6-b577-6e740d0439ae","name":"\u6709\u672c\u751f\u6d3b\u574a","city":"taichung","wifi":5,"seat":5,"quiet":5,"tasty":5,"cheap":5,"music":4,"url":"https:\/\/www.facebook.com\/%E6%9C%89%E6%9C%AC%E7%94%9F%E6%B4%BB%E5%9D%8A-288936521542028\/?ref=bookmarks","address":"\u9022\u7532\u8def253\u5df747\u865f","latitude":"24.17529400","longitude":"120.64144400","limited_time":"maybe","socket":"yes","standing_desk":"yes","mrt":"","open_time":""},{"id":"18ffeb9d-2d64-48a8-85d2-98ffd2fd8205","name":"  Right Cafe","city":"taichung","wifi":4.5,"seat":4,"quiet":4,"tasty":4.5,"cheap":3.5,"music":4.5,"url":"http:\/\/www.rightstyle.com.tw\/","address":"\u81fa\u4e2d\u5e02\u897f\u5340\u4e94\u6b0a\u897f\u56db\u885713\u5df714\u865f","latitude":"24.13902500","longitude":"120.66201750","limited_time":"","socket":"maybe","standing_desk":"","mrt":"","open_time":""},{"id":"19678fd1-e68e-4e42-b81d-255a5ec0d019","name":"SMILE C\u00d8FFEE \u61b2\u8ce3\u5496\u5561 (\u71b1\u6cb3\u5e97)","city":"taichung","wifi":5,"seat":4,"quiet":2,"tasty":4,"cheap":1,"music":4,"url":"https:\/\/www.facebook.com\/smilecoffeee","address":"\u53f0\u4e2d\u5e02\u5317\u5c6f\u5340\u71b1\u6cb3\u8def\u4e8c\u6bb5128\u865f","latitude":"24.17148100","longitude":"120.68775400","limited_time":"maybe","socket":"no","standing_desk":"yes","mrt":"","open_time":""},{"id":"1aa44297-3aa1-402f-9095-b8e61574be65","name":"CHDC CH\u039bP Deco & Cuisine","city":"taichung","wifi":0,"seat":5,"quiet":4,"tasty":5,"cheap":4,"music":5,"url":"https:\/\/www.facebook.com\/chdc.tw\/","address":"\u53f0\u4e2d\u5e02\u9f8d\u4e95\u5340\u85dd\u8853\u8857107\u5df721\u865f","latitude":"24.18788400","longitude":"120.59185200","limited_time":"no","socket":"","standing_desk":"","mrt":"","open_time":""},{"id":"1aa5b6d1-f915-4db6-8be5-08a5a466b72f","name":"coffee VA","city":"taichung","wifi":0,"seat":5,"quiet":4,"tasty":4,"cheap":4,"music":5,"url":"https:\/\/www.facebook.com\/Coffee-VA-425231927827426\/","address":"\u53f0\u4e2d\u5e02\u9727\u5cf0\u5340\u6210\u529f\u8def230\u865f","latitude":"24.05946440","longitude":"120.69942670","limited_time":"no","socket":"maybe","standing_desk":"","mrt":"","open_time":""},{"id":"1ab12373-e014-4fa6-8eae-0a2bdce4159f","name":"Art a New","city":"taichung","wifi":5,"seat":5,"quiet":5,"tasty":5,"cheap":5,"music":5,"url":"https:\/\/www.facebook.com\/aNew.Art\/?fref=ts","address":"\u53f0\u4e2d\u5e02\u897f\u5340\u7cbe\u8aa0\u4e94\u885732\u865f","latitude":"24.15511400","longitude":"120.65770800","limited_time":"no","socket":"yes","standing_desk":"yes","mrt":"","open_time":"14:00-02:00"},{"id":"1ad9ecca-1cd3-4392-88d1-edd2e8e95aa8","name":"\u4e00\u74e3\u5fc3\u9999","city":"taichung","wifi":5,"seat":5,"quiet":4,"tasty":5,"cheap":5,"music":5,"url":"https:\/\/www.facebook.com\/%E4%B8%80%E7%93%A3%E5%BF%83%E9%A6%99-%E9%99%B6%E8%97%9D%E5%92%96%E5%95%A1%E8%8C%B6%E9%A3%B2-205314062830149\/","address":"\u53f0\u4e2d\u5e02\u5927\u7532\u5340\u6587\u6b66\u8def119\u865f","latitude":"24.34757310","longitude":"120.62191880","limited_time":"no","socket":"maybe","standing_desk":"no","mrt":"","open_time":""},{"id":"1b2a2f3e-0a57-4dc1-b0e8-2c1ee8c683f3","name":"\u9999\u7e54\u5496\u5561\u540e\u91cc\u5e97","city":"taichung","wifi":5,"seat":5,"quiet":5,"tasty":5,"cheap":5,"music":5,"url":"https:\/\/www.facebook.com\/kaorikafe","address":"\u6210\u529f\u8def473\u865f","latitude":"24.30345710","longitude":"120.71381370","limited_time":"no","socket":"yes","standing_desk":"yes","mrt":"","open_time":"7\uff1a00-17\uff1a00"},{"id":"1b4551de-d212-4639-ae95-5e9f726612ef","name":"\u574a\u547c\u5496\u5561 Fun hoster","city":"taichung","wifi":0,"seat":0,"quiet":0,"tasty":0,"cheap":0,"music":0,"url":"https:\/\/www.facebook.com\/funhoster","address":"\u53f0\u4e2d\u5e02\u897f\u5340\u5927\u548c\u8def71\u865f","latitude":"24.14997710","longitude":"120.66751580","limited_time":"","socket":"","standing_desk":"","mrt":"","open_time":"\u9031\u4e00\u3001\u4e09\uff1a11:00-18:00 \u56db\u4e94\u516d\u65e5\uff1a11:00 - 21:00 \u9031\u4e8c\u516c\u4f11"},{"id":"1b6057eb-fc7f-4718-9236-3674639d9470","name":"158\u5496\u5561\u9999","city":"taichung","wifi":5,"seat":5,"quiet":5,"tasty":5,"cheap":5,"music":5,"url":"https:\/\/www.facebook.com\/158aromatic\/","address":"406\u53f0\u4e2d\u5e02\u592a\u5e73\u5340\u9577\u9f8d\u8def\u4e00\u6bb5158\u865f","latitude":"24.13095230","longitude":"120.74156310","limited_time":"no","socket":"yes","standing_desk":"yes","mrt":"","open_time":"\u904e\u5e74\u671f\u9593\u6709\u71df\u696d"},{"id":"1c2f6848-d42f-4a6e-9d76-d36470b397fc","name":"\u521d\u5496\u5561","city":"taichung","wifi":5,"seat":5,"quiet":5,"tasty":5,"cheap":5,"music":5,"url":"https:\/\/www.facebook.com\/OriginShalu","address":"\u53f0\u4e2d\u5e02\u6c99\u9e7f\u5340\u56db\u5e73\u885743\u4e4b1\u865f","latitude":"24.23373570","longitude":"120.56002070","limited_time":"maybe","socket":"yes","standing_desk":"no","mrt":"","open_time":""},{"id":"1c6edabb-26ce-4d3d-aeea-23a3256687c6","name":"\u9ed1\u6c83\u5496\u5561-\u9ad8\u5de5\u5e97","city":"taichung","wifi":5,"seat":4,"quiet":3,"tasty":5,"cheap":3,"music":5,"url":"https:\/\/www.hwcroasters.com\/","address":"\u53f0\u4e2d\u5e02\u5357\u5340\u9ad8\u5de5\u8def371\u865f","latitude":"24.11435360","longitude":"120.66736530","limited_time":"no","socket":"maybe","standing_desk":"no","mrt":"","open_time":""},{"id":"1d4357e4-170c-4ff9-8fe6-e158c5f0406a","name":"\u65c5\u6c90\u8c46\u884c","city":"taichung","wifi":5,"seat":5,"quiet":5,"tasty":5,"cheap":5,"music":5,"url":"https:\/\/m.facebook.com\/CoffeeRemus.ShanXi\/?locale2=zh_TW","address":"\u53f0\u4e2d\u5e02\u5317\u5340\u5c71\u897f\u8def\u4e8c\u6bb5236\u865f","latitude":"24.17454100","longitude":"120.67651500","limited_time":"","socket":"maybe","standing_desk":"yes","mrt":"","open_time":""},{"id":"1d795730-565c-4205-a2c4-a8ea643d510e","name":"\u5c71\u65f6\u4f5cSence Project","city":"taichung","wifi":5,"seat":5,"quiet":2,"tasty":0,"cheap":2,"music":5,"url":"","address":"\u53f0\u4e2d\u5e02\u5357\u5340\u5fa9\u8208\u8def\u4e09\u6bb5362\u865f","latitude":"24.13344050","longitude":"120.68166220","limited_time":"no","socket":"no","standing_desk":"yes","mrt":"","open_time":""},{"id":"1d9e7ff2-b0fc-4fa1-b264-cb586e193621","name":"82mm cafe","city":"taichung","wifi":5,"seat":5,"quiet":4,"tasty":5,"cheap":4,"music":4,"url":"https:\/\/www.facebook.com\/82mmCafe","address":"\u53f0\u4e2d\u5e02\u5317\u5340\u4e09\u6c11\u8def\u4e09\u6bb566\u865f","latitude":"24.14781390","longitude":"120.68350920","limited_time":"no","socket":"yes","standing_desk":"yes","mrt":"","open_time":""},{"id":"1ded8411-cb96-4988-9c77-7bb33da72f29","name":"\u53bb\u5316\u599d\u5ba4\u5427 go to the toilet","city":"taichung","wifi":5,"seat":5,"quiet":5,"tasty":5,"cheap":5,"music":5,"url":"www.facebook.com\/gototheloo","address":"\u53f0\u4e2d\u5e02\u6771\u5340\u5fa9\u8208\u8def\u56db\u6bb520\u5df711\u865f","latitude":"24.13424210","longitude":"120.68380560","limited_time":"no","socket":"maybe","standing_desk":"no","mrt":"","open_time":""},{"id":"1fa5c519-1756-4e40-bef1-2449b03fd4b0","name":"VWIII \u8349\u609f\u9053 (VWI\u53f0\u4e2d)","city":"taichung","wifi":0,"seat":0,"quiet":0,"tasty":0,"cheap":0,"music":0,"url":"https:\/\/www.facebook.com\/VWIBYCHADWANG","address":"\u53f0\u4e2d\u5e02\u53f0\u7063\u5927\u9053\u4e8c\u6bb5401\u865f","latitude":"24.15559410","longitude":"120.66208460","limited_time":"no","socket":"no","standing_desk":"","mrt":"","open_time":""},{"id":"1fb1e30a-8383-4004-8680-38dca7c212c0","name":"Under The Rose Cafe ","city":"taichung","wifi":5,"seat":5,"quiet":5,"tasty":5,"cheap":5,"music":5,"url":"","address":"406\u53f0\u4e2d\u5e02\u5317\u5c6f\u5340\u6885\u5ddd\u6771\u8def\u56db\u6bb598\u865f","latitude":"24.17415310","longitude":"120.68003790","limited_time":"no","socket":"maybe","standing_desk":"no","mrt":"","open_time":""},{"id":"20930a68-420f-4335-9631-38a017362a20","name":"CROSS CAFFE \u5c31\u4eab \u624b\u6c96\u55ae\u54c1 \u7fa9\u5f0f\u5496\u5561 \u81ea\u5bb6\u70d8\u7119\u5de5\u4f5c\u5ba4","city":"taichung","wifi":0,"seat":0,"quiet":0,"tasty":0,"cheap":0,"music":0,"url":"","address":"407\u53f0\u4e2d\u5e02\u897f\u5c6f\u5340\u5927\u58a9\u5341\u516b\u8857181\u865f","latitude":"24.15766770","longitude":"120.64798890","limited_time":"no","socket":"maybe","standing_desk":"yes","mrt":"","open_time":""},{"id":"20dae26f-3af1-4b2e-98ed-d6476a3c9426","name":"\u624b\u6a02\u5496\u5561","city":"taichung","wifi":5,"seat":5,"quiet":3,"tasty":3,"cheap":3,"music":4,"url":"https:\/\/www.facebook.com\/s.lcafeonly\/","address":"\u53f0\u4e2d\u5e02\u897f\u5c6f\u5340\u798f\u6797\u8def80\u865f","latitude":"24.18611280","longitude":"120.61459410","limited_time":"no","socket":"maybe","standing_desk":"yes","mrt":"","open_time":"08:30\u201322:30"},{"id":"20e6171b-6454-446e-b3aa-b3db89e73a29","name":"\u53f0\u7063\u60e0\u84c0\u5496\u5561","city":"taichung","wifi":5,"seat":5,"quiet":4,"tasty":4.5,"cheap":4.5,"music":4.5,"url":"https:\/\/www.facebook.com\/huisuncoffee","address":"403\u53f0\u4e2d\u5e02\u897f\u5340\u6607\u5e73\u885760\u865f","latitude":"0.00000000","longitude":"0.00000000","limited_time":"no","socket":"yes","standing_desk":"no","mrt":"","open_time":"\u9031\u4e00-\u4e9408:00~19:30        \u9031\u516d\u65e509:00~20:30 "},{"id":"229bf6fe-59df-46ad-a8c1-d7993b1c3c32","name":"Modism Caf\u00e9 \u6469\u5fb7\u5e74\u4ee3","city":"taichung","wifi":4.5,"seat":5,"quiet":5,"tasty":5,"cheap":5,"music":5,"url":"https:\/\/www.facebook.com\/Modism.Cafe\/","address":"\u53f0\u4e2d\u5e02\u5317\u5340\u5927\u8aa0\u8857 138 \u865f","latitude":"24.14755270","longitude":"120.68126780","limited_time":"no","socket":"maybe","standing_desk":"no","mrt":"","open_time":"\u5e73\u65e513:00-22:00 \u5047\u65e513:00-00:00"},{"id":"22da83e9-00f2-4322-95e8-dab492f3df3a","name":"\u52c1\u9999\u8077\u4eba\u7119\u714e\u5496\u5561","city":"taichung","wifi":5,"seat":5,"quiet":4,"tasty":5,"cheap":5,"music":5,"url":"http:\/\/proaroma.weebly.com\/","address":"\u53f0\u4e2d\u5e02\u5927\u96c5\u5340\u4e2d\u6e05\u8def\u56db\u6bb5460\u865f","latitude":"24.24083510","longitude":"120.63032110","limited_time":"","socket":"maybe","standing_desk":"yes","mrt":"","open_time":"10:00~18:00"},{"id":"22f7377b-9d50-4802-8157-ccd2cc5377dd","name":"Kusabi+","city":"taichung","wifi":0,"seat":3,"quiet":3,"tasty":4,"cheap":0,"music":0,"url":"https:\/\/www.facebook.com\/kusabi.plus\/","address":"\u53f0\u4e2d\u5e02 \u5317\u5340 \u7be4\u884c\u8def316\u5df72\u865f","latitude":"24.15515000","longitude":"120.67404050","limited_time":"no","socket":"yes","standing_desk":"no","mrt":"","open_time":"\u505c\u6b62\u71df\u696d"},{"id":"236957a3-705f-4143-a72a-1834957d2cfc","name":"Tamp Temper Taichung Coffee","city":"taichung","wifi":0,"seat":4,"quiet":4,"tasty":5,"cheap":5,"music":5,"url":"https:\/\/tamp-temper-taichung-coffee.business.site\/","address":"403\u53f0\u4e2d\u5e02\u897f\u5340\u6c11\u6b0a\u8def286\u865f","latitude":"24.14664900","longitude":"120.67017800","limited_time":"no","socket":"no","standing_desk":"no","mrt":"","open_time":"\u9019\u9593\u5e97\u63a1\u7528\u5916\u5e36\u70ba\u4e3b\uff0c\u5ea7\u4f4d\u6975\u5c11\u4e0d\u9069\u5408\u60f3\u8981\u4e45\u5750\u7684\u9867\u5ba2"},{"id":"23786a24-1106-440b-b8f8-4507cdf7b0b5","name":"\u9ed1\u6f6e","city":"taichung","wifi":4.5,"seat":5,"quiet":5,"tasty":5,"cheap":4,"music":5,"url":"https:\/\/www.facebook.com\/coffeelization\/","address":"\u53f0\u4e2d\u5e02\u9f8d\u4e95\u5340\u65b0\u8208\u8def22\u5df77\u865f","latitude":"24.18138960","longitude":"120.58961190","limited_time":"","socket":"maybe","standing_desk":"no","mrt":"","open_time":"10:00 - 20:30"},{"id":"249cd868-cd7b-48f5-a527-844ed5fd0459","name":"\u65e5\u9752\u5496\u5561\u5e97","city":"taichung","wifi":0,"seat":0,"quiet":0,"tasty":0,"cheap":0,"music":0,"url":"","address":"\u53f0\u4e2d\u5e02\u8c50\u539f\u5340\u6c38\u5eb7\u8857101\u865f","latitude":"24.24279900","longitude":"120.72683600","limited_time":"","socket":"","standing_desk":"","mrt":"","open_time":""},{"id":"2546701d-ba6c-46f9-8fe3-d0cc68424238","name":"\u597d\u65e5\u5496\u5561","city":"taichung","wifi":5,"seat":5,"quiet":4.5,"tasty":4.5,"cheap":4.5,"music":5,"url":"https:\/\/www.facebook.com\/GoodDaysGoodCoffee\/","address":"\u53f0\u4e2d\u5e02\u897f\u5c6f\u5340\u798f\u4e0a\u5df7216\u5f0415\u865f","latitude":"24.17612970","longitude":"120.64802120","limited_time":"no","socket":"maybe","standing_desk":"yes","mrt":"","open_time":"15:00~02:00(\u4e0d\u5b9a\u4f11)"},{"id":"25c225c3-54fc-44cd-b9d7-fd51eb603408","name":"\u4e16\u754c\u5e78\u798f\u5496\u5561\u8c50\u539f\u5e97\uff08\u852c\u98df\u5496\u5561\uff09","city":"taichung","wifi":5,"seat":5,"quiet":5,"tasty":5,"cheap":4,"music":5,"url":"https:\/\/www.instagram.com\/fortunatecoffeefengyuan?igsh=MWI0b2JjdmhicGQ4Ng==","address":"\u53f0\u4e2d\u5e02\u8c50\u539f\u5340\u6c11\u751f\u885769\u865f","latitude":"24.24735970","longitude":"120.71695390","limited_time":"no","socket":"yes","standing_desk":"","mrt":"","open_time":""},{"id":"25f222cf-12c0-4c9b-be4c-fba9664197bc","name":"Cherry Espresso \u6afb\u6843\u8a08\u756b","city":"taichung","wifi":5,"seat":5,"quiet":5,"tasty":5,"cheap":5,"music":5,"url":"https:\/\/www.facebook.com\/cherryespresso\/","address":"\u53f0\u4e2d\u5e02\u897f\u5c6f\u5340\u897f\u5c6f\u8def\u4e8c\u6bb5270\u5df71\u865f","latitude":"24.17442010","longitude":"120.64480570","limited_time":"no","socket":"maybe","standing_desk":"no","mrt":"","open_time":""},{"id":"285d96ab-54aa-4bf8-9a8b-308a89059625","name":"\u5f0e\u516d\u624b\u505a\u751c\u9ede\u5de5\u4f5c\u5ba4","city":"taichung","wifi":0,"seat":4,"quiet":4,"tasty":0,"cheap":5,"music":4,"url":"https:\/\/www.facebook.com\/No.36Loft\/","address":"\u53f0\u4e2d\u5e02\u5317\u5c6f\u5340\u540e\u5e84\u8def212\u865f","latitude":"24.19055190","longitude":"120.66602680","limited_time":"maybe","socket":"","standing_desk":"no","mrt":"","open_time":"\u71df\u696d\u6642\u9593\uff1a12:00-18:00 \u516c\u4f11\u65e5\uff1a\u4e0d\u5b9a\u671f"},{"id":"28691299-c867-4954-9530-7e3cbb5a378e","name":"Fish Cafe \u81ea\u5bb6\u70d8\u7119\u5496\u5561\u9928","city":"taichung","wifi":5,"seat":5,"quiet":5,"tasty":5,"cheap":5,"music":5,"url":"https:\/\/www.facebook.com\/fishcafetw\/","address":"\u53f0\u7063\u53f0\u4e2d\u5e02\u9f8d\u4e95\u5340\u65b0\u8208\u8def27\u5df78\u865f","latitude":"24.18067130","longitude":"120.58915180","limited_time":"no","socket":"no","standing_desk":"no","mrt":"","open_time":"12:00~21:00"},{"id":"29700233-ea03-47d1-a37b-80953a122b86","name":"\u54c1\u8c46\u5496\u5561","city":"taichung","wifi":0,"seat":4,"quiet":4,"tasty":5,"cheap":5,"music":5,"url":"","address":"\u53f0\u4e2d\u5e02\u897f\u5340\u6c11\u6b0a\u8def213\u5df73\u865f1\u6a13","latitude":"24.14717790","longitude":"120.66927880","limited_time":"no","socket":"maybe","standing_desk":"no","mrt":"","open_time":""},{"id":"2a42c40e-2b9c-47c5-b807-f207e4fac1e6","name":"DM Cafe","city":"taichung","wifi":3,"seat":5,"quiet":4,"tasty":5,"cheap":5,"music":5,"url":"https:\/\/m.facebook.com\/DM-Cafe-416267108508818\/","address":"\u53f0\u4e2d\u5e02\u897f\u5340\u6c11\u751f\u8def225\u5df711\u865f","latitude":"24.14376880","longitude":"120.66806480","limited_time":"no","socket":"","standing_desk":"no","mrt":"","open_time":""},{"id":"2a45b5eb-4a04-4142-b658-d96d467c957e","name":"\u6b23\u54c1\u5496\u5561\u838a\u5712","city":"taichung","wifi":4,"seat":4,"quiet":5,"tasty":4,"cheap":4,"music":4,"url":"https:\/\/www.facebook.com\/pg\/%E6%AC%A3%E5%93%81-%E5%92%96%E5%95%A1-%E5%A4%A9%E7%84%B6-%E7%84%A1%E8%BE%B2%E8%97%A5-485084694876575\/about\/?ref=page_internal","address":"\u53f0\u4e2d\u5e02\u65b0\u793e\u5340\u4e2d\u8208\u5dba\u8857\u4e8c\u6bb533\u865f","latitude":"24.21566500","longitude":"120.78296990","limited_time":"","socket":"","standing_desk":"yes","mrt":"","open_time":""},{"id":"2a94b4f2-185f-483b-bd1c-6db1fc43aa6f","name":"WAP cafe","city":"taichung","wifi":5,"seat":5,"quiet":4,"tasty":3,"cheap":2,"music":4,"url":"https:\/\/www.facebook.com\/WAPCAFE\/","address":"406\u53f0\u4e2d\u5e02\u592a\u5e73\u5340\u6a39\u5b5d\u8def336\u5df75\u865f","latitude":"24.15494600","longitude":"120.71953500","limited_time":"no","socket":"maybe","standing_desk":"yes","mrt":"","open_time":""},{"id":"2aaabfa6-5eda-49c8-9d77-7e3897a80b18","name":"Okiedokie cafe","city":"taichung","wifi":5,"seat":4,"quiet":5,"tasty":5,"cheap":4,"music":5,"url":"https:\/\/www.facebook.com\/OkieDokie.Cafe\/","address":"\u53f0\u4e2d\u5e02\u897f\u5340\u83ef\u7f8e\u897f\u8857\u4e00\u6bb552\u865f","latitude":"24.15364600","longitude":"120.65836800","limited_time":"no","socket":"yes","standing_desk":"no","mrt":"","open_time":""},{"id":"2af8036b-4aa3-4772-a77a-01a1c1b53545","name":"Coffee String \u5496\u5561\u7dda","city":"taichung","wifi":5,"seat":5,"quiet":4,"tasty":5,"cheap":5,"music":5,"url":"https:\/\/www.facebook.com\/coffeestring2017\/","address":"\u53f0\u4e2d\u5e02\u5317\u5c6f\u5340\u5317\u5c6f\u8def441- 12\u865f","latitude":"24.18018480","longitude":"120.70097800","limited_time":"no","socket":"no","standing_desk":"no","mrt":"","open_time":""},{"id":"2c7764dc-3a2c-4ed8-a758-0bb4883da8f8","name":"Kophy cafe","city":"taichung","wifi":5,"seat":4.5,"quiet":4.5,"tasty":5,"cheap":4,"music":4.5,"url":"https:\/\/www.facebook.com\/kophycafe\/","address":"\u53f0\u4e2d\u5e02\u897f\u5340\u7cbe\u8aa0\u516b\u88571\u865f","latitude":"24.15478660","longitude":"120.65593370","limited_time":"no","socket":"maybe","standing_desk":"","mrt":"","open_time":"\u6bcf\u65e5 10:00-19:00"},{"id":"2d2aaa52-e0d0-401d-8987-efeb7fa65b09","name":"\u7f85\u5e03\u68ee\u5496\u5561\u66f8\u87f2\u623f","city":"taichung","wifi":0,"seat":4,"quiet":3,"tasty":3,"cheap":0,"music":4,"url":"http:\/\/www.lobsang-books.com","address":"\u53f0\u4e2d\u5e02\u70cf\u65e5\u5340\u6eaa\u5cb8\u8def8-3\u865f","latitude":"24.03602770","longitude":"120.64331050","limited_time":"","socket":"","standing_desk":"no","mrt":"","open_time":"\u9031\u4e09~\u9031\u4e94 : 11:00~18:00\uff5c\u9031\u516d\u65e5 :10:00~19:00\uff5c\u9031\u4e00\u53ca\u9031\u4e8c \u56fa\u5b9a\u5e97\u4f11"},{"id":"2db8f521-8b0a-42a9-b58a-ac5bffe3f9e0","name":"Sepia coffee \u65af\u6bd4\u4e9e\u5496\u5561 (\u671d\u5bcc\u5e97)","city":"taichung","wifi":5,"seat":5,"quiet":5,"tasty":5,"cheap":4,"music":5,"url":"https:\/\/www.facebook.com\/pg\/sepiacoffee242","address":"\u53f0\u4e2d\u5e02\u897f\u5c6f\u5340\u671d\u5bcc\u8def242\u865f","latitude":"24.16378450","longitude":"120.63546690","limited_time":"maybe","socket":"maybe","standing_desk":"no","mrt":"","open_time":"7:30 - 21:30"},{"id":"2dc87fa5-c081-482c-ab3c-bcbfdc4f4cb8","name":"This Guy\u9019\u50a2\u4f19","city":"taichung","wifi":0,"seat":0,"quiet":0,"tasty":0,"cheap":0,"music":0,"url":"https:\/\/instagram.com\/thisguy.taichung?utm_medium=copy_link","address":"403\u53f0\u4e2d\u5e02\u897f\u5340\u5927\u5fe0\u5357\u885782\u5df740\u865f","latitude":"24.13863790","longitude":"120.65629240","limited_time":"no","socket":"no","standing_desk":"yes","mrt":"","open_time":""},{"id":"2e4c7cf1-4948-4edf-bd8b-7a0b8b311ab9","name":"\u5496\u5561\u5de5\u5834","city":"taichung","wifi":5,"seat":5,"quiet":3,"tasty":5,"cheap":5,"music":4,"url":"www.coffeeplus.com.tw","address":"\u53f0\u4e2d\u5e02\u897f\u5c6f\u5340\u897f\u5c6f\u8def\u4e8c\u6bb5256\u5df78\u865f","latitude":"24.17095800","longitude":"120.64736600","limited_time":"no","socket":"maybe","standing_desk":"no","mrt":"","open_time":""},{"id":"2fb6d216-cf3b-41b7-9ffb-2e7e5231bb5d","name":"\u54e9\u560e\u54c7 LIGAWA","city":"taichung","wifi":0,"seat":0,"quiet":0,"tasty":0,"cheap":0,"music":0,"url":"https:\/\/www.facebook.com\/ligawaligawadessert\/","address":"\u53f0\u4e2d\u5e02\u6771\u5340\u81ea\u5f37\u88576\u5df728\u865f","latitude":"24.15059060","longitude":"120.69682640","limited_time":"no","socket":"no","standing_desk":"no","mrt":"","open_time":"\u4e09\u6708\u5e97\u4f11\u65e5\uff1a2\u30018\u30019\u300115\u300116\u300122\u300123\u300129\u300130"},{"id":"2ff8e8fc-ee27-4b10-8a36-cf3508944d27","name":"WensCo \u6587\u5fc3\u6703\u8b70\u5ba4-\u5171\u540c\u5de5\u4f5c\u7a7a\u9593","city":"taichung","wifi":0,"seat":0,"quiet":0,"tasty":0,"cheap":0,"music":0,"url":"https:\/\/meetingtw.com\/","address":"406\u53f0\u4e2d\u5e02\u5317\u5c6f\u5340\u6587\u5fc3\u8def\u56db\u6bb5936-1\u865f2.3\u6a13","latitude":"24.17074800","longitude":"120.69456100","limited_time":"no","socket":"yes","standing_desk":"yes","mrt":"","open_time":""},{"id":"31b89aa7-501b-41a1-9427-5ae4add33e4b","name":"\u79c1\u85cf\u5c0f\u5df7\u81ea\u5bb6\u7119\u714e\u5496\u5561\u5de5\u4f5c\u5ba4","city":"taichung","wifi":5,"seat":5,"quiet":5,"tasty":5,"cheap":5,"music":5,"url":"","address":"\u53f0\u4e2d\u5e02\u8c50\u539f\u5340\u540c\u5b89\u885749\u5df76\u865f","latitude":"24.24835800","longitude":"120.72501500","limited_time":"no","socket":"yes","standing_desk":"no","mrt":"","open_time":""},{"id":"3209115f-185f-4617-a219-d37831b6cc34","name":"FLORA CAFFE'","city":"taichung","wifi":5,"seat":4.5,"quiet":4,"tasty":4.5,"cheap":4.5,"music":4.5,"url":"https:\/\/www.facebook.com\/Flora-Caffe-407395976009736\/","address":"\u53f0\u4e2d\u5e02\u897f\u5340\u5927\u660e\u885710\u865f","latitude":"24.13916940","longitude":"120.67462350","limited_time":"no","socket":"yes","standing_desk":"yes","mrt":"","open_time":"08\uff1a00\uff5e19\uff1a00"},{"id":"329382c1-9495-4792-aa80-f563a37b1877","name":"H' Cafe","city":"taichung","wifi":5,"seat":5,"quiet":5,"tasty":4,"cheap":4,"music":4,"url":"https:\/\/www.facebook.com\/Hcafe.make.the.best.coffee.ever\/","address":"434\u53f0\u4e2d\u5e02\u9f8d\u4e95\u5340\u85dd\u8853\u885739\u5df712\u865f","latitude":"24.18735800","longitude":"120.59396720","limited_time":"no","socket":"maybe","standing_desk":"no","mrt":"","open_time":"\u4e4b\u5f8c\u6703\u518d\u66f4\u52d5"},{"id":"32b1bd08-8db6-440a-ac0d-9eab1c00d35d","name":"JACU cafe","city":"taichung","wifi":5,"seat":5,"quiet":5,"tasty":5,"cheap":5,"music":5,"url":"","address":"\u53f0\u4e2d\u5e02\u5927\u58a9\u56db\u8857129\u865f","latitude":"24.14088880","longitude":"120.65192470","limited_time":"no","socket":"yes","standing_desk":"","mrt":"","open_time":""},{"id":"32b3058c-92ec-4f8b-ad00-35610b0eef21","name":"meher cafe","city":"taichung","wifi":5,"seat":5,"quiet":2,"tasty":5,"cheap":2,"music":5,"url":"meher cafe","address":"\u53f0\u4e2d\u5e02\u6771\u5340\u4e09\u8ce2\u8857113\u865f","latitude":"24.14088040","longitude":"120.70675860","limited_time":"maybe","socket":"maybe","standing_desk":"no","mrt":"","open_time":""},{"id":"32e4a00a-962c-44c8-86ee-ca062c49b95d","name":"meets\u8993\u98df","city":"taichung","wifi":0,"seat":0,"quiet":0,"tasty":0,"cheap":0,"music":0,"url":"https:\/\/www.facebook.com\/MeetsBistro\/","address":"\u53f0\u4e2d\u5e02\u897f\u5340\u7cbe\u8aa022\u885729\u865f","latitude":"24.14745160","longitude":"120.65649180","limited_time":"","socket":"maybe","standing_desk":"no","mrt":"","open_time":""},{"id":"32efe402-aed0-4707-8e0f-73e098d8f0d5","name":"\u5143\u751f\u5496\u5561","city":"taichung","wifi":5,"seat":5,"quiet":5,"tasty":5,"cheap":4,"music":5,"url":"https:\/\/www.facebook.com\/YuanShengCafe\/","address":"\u53f0\u4e2d\u5e02\u897f\u5340\u5411\u4e0a\u8def\u4e00\u6bb579\u5df764\u865f","latitude":"24.14518970","longitude":"120.66420140","limited_time":"maybe","socket":"maybe","standing_desk":"no","mrt":"","open_time":"08:00 - 18:00"},{"id":"33a13951-b264-424f-b7ae-b3f786a79b55","name":"\u74e6\u5361\u5496\u5561","city":"taichung","wifi":0,"seat":0,"quiet":5,"tasty":5,"cheap":5,"music":5,"url":"https:\/\/www.facebook.com\/wakacafetw\/","address":"\u53f0\u4e2d\u5e02\u5357\u5c6f\u5340\u5411\u4e0a\u5357\u8def287\u865f","latitude":"24.14487050","longitude":"120.64891790","limited_time":"no","socket":"maybe","standing_desk":"yes","mrt":"","open_time":""},{"id":"34091046-d397-456f-a25f-a5ee5fe2f34f","name":"\u5927\u53e2\u5496\u5561","city":"taichung","wifi":0,"seat":0,"quiet":0,"tasty":0,"cheap":0,"music":0,"url":"","address":"406\u53f0\u4e2d\u5e02\u5317\u5c6f\u5340\u5d07\u5fb7\u516d\u8def72\u865f","latitude":"24.18021490","longitude":"120.68801200","limited_time":"","socket":"","standing_desk":"","mrt":"","open_time":""},{"id":"342f1188-bc80-4926-93d6-965919206542","name":"\u591a\u99ac\u5496\u5561","city":"taichung","wifi":4,"seat":5,"quiet":4,"tasty":4,"cheap":3,"music":4,"url":"https:\/\/www.facebook.com\/Tomarcafe\/","address":"\u53f0\u4e2d\u5e02\u5317\u5c6f\u5340\u660c\u5e73\u8def\u4e00\u6bb5328\u865f","latitude":"24.17368380","longitude":"120.69065900","limited_time":"","socket":"maybe","standing_desk":"yes","mrt":"","open_time":""},{"id":"349961ea-81d2-47a0-8e8e-52401fbc9d76","name":"\u5deb\u5e2b\u5496\u5561","city":"taichung","wifi":4,"seat":4,"quiet":5,"tasty":5,"cheap":3,"music":4,"url":"https:\/\/www.facebook.com\/winnercoffe\/","address":"\u592a\u5e73\u5340\u6771\u5e73\u8def563\u865f","latitude":"24.13332500","longitude":"120.71767200","limited_time":"maybe","socket":"maybe","standing_desk":"no","mrt":"","open_time":"\u5e73\u65e5 13:00 - 18:00 \/ \u5047\u65e5 13:00 - 21:00"},{"id":"34cf03e9-3519-46f8-9278-96e94011b7b5","name":"\u65e5\u6f2b\u5496\u5561\u5927\u91cc\u5e97","city":"taichung","wifi":5,"seat":5,"quiet":2,"tasty":3,"cheap":1,"music":3,"url":"","address":"\u53f0\u4e2d\u5e02\u5927\u91cc\u5340\u6c38\u9686\u8def455\u865f","latitude":"24.11343020","longitude":"120.67608930","limited_time":"","socket":"","standing_desk":"","mrt":"","open_time":""},{"id":"36b1b7f1-7a4a-4e9e-a802-c4eaaff3d738","name":"\u5bf6\u548c\u5496\u5561\u751f\u6d3b\u9928","city":"taichung","wifi":0,"seat":3,"quiet":4,"tasty":5,"cheap":5,"music":5,"url":"https:\/\/www.facebook.com\/pg\/JMCAFE2015","address":" \u53f0\u4e2d\u5e02\u897f\u5340\u4e94\u6b0a\u56db\u885723\u865f","latitude":"24.13719150","longitude":"120.66444970","limited_time":"maybe","socket":"no","standing_desk":"yes","mrt":"","open_time":"10:00 - 19:00"},{"id":"370797c7-5278-45b9-b8e0-ff91ac99fd86","name":"\u4eca\u5496\u5561 cafe today","city":"taichung","wifi":0,"seat":0,"quiet":0,"tasty":0,"cheap":0,"music":0,"url":"","address":"40642\u53f0\u4e2d\u5e02\u5317\u5c6f\u5340\u8ecd\u798f\u5341\u4e09\u8def88\u865f","latitude":"24.17070950","longitude":"120.73119320","limited_time":"","socket":"","standing_desk":"","mrt":"","open_time":""},{"id":"378308a3-5563-43c6-a3b1-dffa5fc9b987","name":"\u6613\u676f\u5496\u5561\u70d8\u7119\u623f","city":"taichung","wifi":0,"seat":0,"quiet":0,"tasty":0,"cheap":0,"music":0,"url":"","address":"436\u53f0\u4e2d\u5e02\u6e05\u6c34\u5340\u9ad8\u7f8e\u8def188\u865f","latitude":"24.28237400","longitude":"120.57506130","limited_time":"","socket":"","standing_desk":"","mrt":"","open_time":""},{"id":"37cb5973-3851-4df5-ab8f-e9cca7fd2d2e","name":"Dilla Studio \u8494\u863f\u5b50\u5496\u5561\u9078\u7269\u5de5\u4f5c\u5ba4","city":"taichung","wifi":5,"seat":2,"quiet":4,"tasty":5,"cheap":4,"music":5,"url":"Instagram:dilla_studio_","address":"\u53f0\u4e2d\u5e02\u5317\u5340\u592a\u5e73\u8def19\u5df71\u865f\u4e4b7","latitude":"24.14734320","longitude":"120.68546090","limited_time":"no","socket":"yes","standing_desk":"yes","mrt":"","open_time":""},{"id":"37e45306-05ee-403d-900b-c81f3c6817ef","name":"\u7e46\u7279\u5496\u5561ARTMUNICATE CAFE'","city":"taichung","wifi":5,"seat":4.5,"quiet":5,"tasty":5,"cheap":5,"music":5,"url":"https:\/\/www.facebook.com\/Artmunicate.Cafe\/","address":"\u53f0\u4e2d\u5e02\u897f\u5c6f\u5340\u570b\u5b89\u4e00\u8def57\u865f","latitude":"24.19028810","longitude":"120.61506950","limited_time":"maybe","socket":"maybe","standing_desk":"no","mrt":"","open_time":""},{"id":"37f70411-8b6b-41a6-8674-b26a17e704dc","name":"kafeD\u5f97\u52d2\u65af\u767b\u548c\u5cb8\u5496\u5561","city":"taichung","wifi":5,"seat":5,"quiet":4,"tasty":5,"cheap":4,"music":5,"url":"https:\/\/www.facebook.com\/DasKafeD\/","address":"\u53f0\u4e2d\u5e02\u5357\u5c6f\u5340\u5927\u9032\u8857382\u865f","latitude":"24.14960300","longitude":"120.65148500","limited_time":"maybe","socket":"maybe","standing_desk":"no","mrt":"","open_time":"\u6b64\u5206\u5e97\u5df2\u6b47\u696d"},{"id":"38404bae-3091-4543-a197-5fa3db3bdb92","name":"3393","city":"taichung","wifi":5,"seat":4,"quiet":5,"tasty":4,"cheap":4,"music":5,"url":"https:\/\/www.facebook.com\/3393.tw\/","address":"\u53f0\u4e2d\u5e02\u5357\u5340\u5fa9\u8208\u8def\u4e09\u6bb5393\u865f","latitude":"24.13327550","longitude":"120.67976320","limited_time":"maybe","socket":"yes","standing_desk":"yes","mrt":"","open_time":""},{"id":"38f22c4e-c0a9-4d29-ae20-025550479028","name":"\u6c90\u5496\u5561 Mood caf\u00e9","city":"taichung","wifi":0,"seat":0,"quiet":0,"tasty":0,"cheap":0,"music":0,"url":"https:\/\/www.facebook.com\/Mood-caf\u00e9-\u6c90\u5496\u5561-827187380720443","address":"\u53f0\u4e2d\u5e02\u6c99\u9e7f\u5340\u4e2d\u5c71\u8def201\u865f","latitude":"24.23733290","longitude":"120.56298900","limited_time":"","socket":"","standing_desk":"","mrt":"","open_time":"11:00 - 21:00"},{"id":"399378f8-bc24-4635-b7a8-9225a6b04b90","name":"\u597d\u6a23\u5287\u5834\u5496\u5561","city":"taichung","wifi":0,"seat":0,"quiet":0,"tasty":0,"cheap":0,"music":0,"url":"https:\/\/www.facebook.com\/VVGTHEATERCAFE","address":"\u53f0\u4e2d\u5e02\u897f\u5c6f\u5340\u60e0\u4f86\u8def\u4e8c\u6bb5101\u865f1F","latitude":"24.16264920","longitude":"120.64030280","limited_time":"no","socket":"","standing_desk":"no","mrt":"","open_time":""},{"id":"3a07208a-e433-43e2-b65c-6e7aafc0cdde","name":"23\u5f04\u5496\u5561","city":"taichung","wifi":0,"seat":0,"quiet":0,"tasty":0,"cheap":0,"music":0,"url":"","address":"436\u53f0\u4e2d\u5e02\u6e05\u6c34\u5340\u6e05\u6c34\u885723-8\u865f","latitude":"24.26892300","longitude":"120.57620100","limited_time":"","socket":"","standing_desk":"","mrt":"","open_time":""},{"id":"3a41343b-8242-4bfa-ad1e-be079d0d339a","name":"\u70d8work\/\u5496\u5561\u70d8\u4f5c\u574a","city":"taichung","wifi":5,"seat":5,"quiet":5,"tasty":5,"cheap":5,"music":5,"url":"https:\/\/www.facebook.com\/hwork.coffee\/","address":"\u53f0\u4e2d\u5e02\u897f\u5340\u516c\u9928\u8def200\u865f","latitude":"24.13584220","longitude":"120.66826680","limited_time":"","socket":"maybe","standing_desk":"no","mrt":"","open_time":""},{"id":"3b6e9a33-074c-4565-8c5c-d466ce9563b1","name":"\u8993\u5149\u5496\u5561","city":"taichung","wifi":4,"seat":4,"quiet":4,"tasty":5,"cheap":4,"music":3,"url":"","address":"\u53f0\u4e2d\u5e02\u897f\u5340\u53f0\u4e2d\u5e02\u897f\u5340\u83ef\u7f8e\u8857101\u865f","latitude":"24.14380420","longitude":"120.65863470","limited_time":"no","socket":"maybe","standing_desk":"no","mrt":"","open_time":"10:00\u201320:00"},{"id":"3ca5ff00-c411-4cb6-b649-d47b78549037","name":"\u6b50\u820d\u5496\u5561 ORSIR COFFEE","city":"taichung","wifi":0,"seat":0,"quiet":0,"tasty":0,"cheap":0,"music":0,"url":"","address":"\u53f0\u4e2d\u5e02\u897f\u5340\u4e94\u6b0a\u8def14\u865f","latitude":"24.14330320","longitude":"120.66944390","limited_time":"","socket":"","standing_desk":"","mrt":"","open_time":""},{"id":"3cad0f5c-727c-419e-9355-dd6a1fec0732","name":"Zebra Walking Cafe \u6591\u99ac\u6563\u6b65\u5496\u5561","city":"taichung","wifi":4,"seat":4,"quiet":5,"tasty":3,"cheap":3,"music":5,"url":"https:\/\/www.facebook.com\/zebrawalk\/","address":"Zebra Walking Cafe \u6591\u99ac\u6563\u6b65\u5496\u5561","latitude":"24.13917890","longitude":"120.66514590","limited_time":"yes","socket":"no","standing_desk":"no","mrt":"","open_time":""},{"id":"3ddcf82b-54ea-4167-b4e1-a3f4a38a5849","name":"J.W. Cafe","city":"taichung","wifi":5,"seat":3,"quiet":3,"tasty":5,"cheap":4,"music":4,"url":"https:\/\/www.facebook.com\/JemmyWangCafe","address":"408 \u53f0\u4e2d\u5e02\u5357\u5c6f\u5340\u5927\u58a9\u4e94\u8857328-1","latitude":"24.14214430","longitude":"120.64785780","limited_time":"maybe","socket":"no","standing_desk":"yes","mrt":"","open_time":"\u9031\u3127\uff5e\u9031\u4e94 12:00\uff5e18:00 \u9031\u516d\u3001\u9031\u65e5 10:00\uff5e18:00"},{"id":"3dfa3064-3a2f-4bd1-a244-98183ae66f16","name":"\u6642\u5149","city":"taichung","wifi":0,"seat":0,"quiet":0,"tasty":0,"cheap":0,"music":0,"url":"","address":"400\u53f0\u4e2d\u5e02\u4e2d\u5340\u4ec1\u611b\u885713\u5df71\u865f","latitude":"24.14264530","longitude":"120.67502480","limited_time":"","socket":"","standing_desk":"","mrt":"","open_time":""},{"id":"3f20681d-9a1e-4870-849c-f38f1f444c88","name":"\u5c71\u4f73\u4f0a 3+1 caf\u00e9","city":"taichung","wifi":4,"seat":5,"quiet":5,"tasty":5,"cheap":3,"music":3,"url":"https:\/\/www.facebook.com\/3plus1cafe","address":"\u53f0\u4e2d\u5e02\u897f\u5c6f\u5340\u7389\u9580\u8def80\u5df71\u865f","latitude":"24.18632940","longitude":"120.61062040","limited_time":"","socket":"","standing_desk":"","mrt":"","open_time":"\u9031\u4e8c~\u9031\u65e5\uff1a09:00~18:00 \u9031\u4e00\u516c\u4f11"},{"id":"40bcf6c1-bb97-4cb5-83cf-bdaf22b02222","name":"coffee stopover black","city":"taichung","wifi":0,"seat":0,"quiet":0,"tasty":0,"cheap":0,"music":0,"url":"","address":"403\u53f0\u4e2d\u5e02\u897f\u5340\u798f\u9f8d\u88577\u865f1\u6a13","latitude":"24.14544290","longitude":"120.67190800","limited_time":"no","socket":"maybe","standing_desk":"yes","mrt":"","open_time":""},{"id":"419dda32-c9cc-43e7-b896-d309d86acd38","name":"CoffeeEAH","city":"taichung","wifi":5,"seat":5,"quiet":5,"tasty":5,"cheap":4,"music":4,"url":"https:\/\/www.facebook.com\/coffeeeah","address":"\u53f0\u4e2d\u5e02\u5357\u5c6f\u5340\u5927\u58a9\u4e03\u8857493\u865f","latitude":"24.14404900","longitude":"120.64148300","limited_time":"no","socket":"maybe","standing_desk":"yes","mrt":"","open_time":"12:00\uff5e20:00                 \u661f\u671f\u65e5\u516c\u4f11\n"},{"id":"41d28f69-4ede-40b9-b1cc-a4a930939935","name":"Q morning \u624b\u4f5c\u8f15\u98df\/\u5496\u5561","city":"taichung","wifi":5,"seat":5,"quiet":5,"tasty":4,"cheap":5,"music":5,"url":"https:\/\/www.facebook.com\/Q-morning-%E6%89%8B%E4%BD%9C%E8%BC%95%E9%A3%9F%E5%92%96%E5%95%A1-606423062866914\/","address":"\u53f0\u4e2d\u5e02\u5357\u5c6f\u5340\u6c38\u6625\u6771\u8def285\u865f","latitude":"24.13457890","longitude":"120.64895700","limited_time":"no","socket":"maybe","standing_desk":"yes","mrt":"","open_time":"09:00~18:00"},{"id":"420fe5af-111e-4ed1-93e0-dd538c418462","name":"\u8c93\u65c5\u884c\u5496\u5561\u8f15\u98df\u9928","city":"taichung","wifi":4,"seat":5,"quiet":3,"tasty":2,"cheap":3,"music":3,"url":"https:\/\/www.facebook.com\/cat266Travel","address":"403\u53f0\u4e2d\u5e02\u897f\u5340\u6797\u68ee\u8def26-6\u865f","latitude":"24.13529300","longitude":"120.67379200","limited_time":"maybe","socket":"yes","standing_desk":"no","mrt":"","open_time":""},{"id":"42bd1f6e-72a0-41b3-b538-ca0953b61b51","name":"\u5317\u6975\u661f\u54c1\u5561 North Star Cafe","city":"taichung","wifi":5,"seat":5,"quiet":5,"tasty":4.5,"cheap":4.5,"music":4,"url":"https:\/\/www.facebook.com\/Northstarcafe458","address":"40823\u53f0\u4e2d\u5e02\u5357\u5c6f\u5340\u6587\u5fc3\u53575\u8def\u4e8c\u6bb5458\u865f","latitude":"24.14034260","longitude":"120.63069060","limited_time":"no","socket":"yes","standing_desk":"no","mrt":"","open_time":""},{"id":"4393d3e2-0c14-4f8d-8357-b4b209a274d7","name":"mirror cafe\u7af6\u5b50\u5496\u5561","city":"taichung","wifi":5,"seat":5,"quiet":5,"tasty":5,"cheap":4,"music":3,"url":"www.facebook.com\/mirrorcafe11","address":"\u53f0\u4e2d\u5e02\u897f\u5340\u6a21\u7bc4\u885723\u5df711\u865f","latitude":"24.14896850","longitude":"120.66576120","limited_time":"no","socket":"yes","standing_desk":"yes","mrt":"","open_time":""},{"id":"4529d7c6-805c-4377-b9aa-bd9deaed52f8","name":"\u60f3\u60f3\u4eba\u6587\u7a7a\u9593","city":"taichung","wifi":4.5,"seat":5,"quiet":5,"tasty":5,"cheap":4.5,"music":4.5,"url":"https:\/\/www.facebook.com\/thinkerscornertaiwan\/","address":"\u53f0\u4e2d\u5e02\u4e2d\u5340\u6c11\u6b0a\u8def78\u865f","latitude":"24.13752920","longitude":"120.67831470","limited_time":"no","socket":"yes","standing_desk":"","mrt":"","open_time":"\u9031\u4e09~\u4e9411:30~19:30 (15:00\u523016:00\u5348\u4f11)        \u9031\u516d11:30~20:00              \u9031\u65e511:30~19:00              \u9031\u4e00\u4e8c\u516c\u4f11"},{"id":"46c091a9-c1ec-42f4-9358-c667c10312cb","name":"Solidbean Coffee Roasters","city":"taichung","wifi":5,"seat":5,"quiet":4,"tasty":5,"cheap":4,"music":5,"url":"https:\/\/www.facebook.com\/solidbeancoffeeroasters\/","address":"\u53f0\u4e2d\u5e02\u897f\u5340\u7cbe\u8aa0\u4e09\u885728\u865f","latitude":"24.15645100","longitude":"120.65776100","limited_time":"no","socket":"yes","standing_desk":"no","mrt":"","open_time":"08:30\u201318:30"},{"id":"47bcd065-6479-4ef3-bb81-a84d3209d576","name":"Brewband Coffee","city":"taichung","wifi":4.5,"seat":4.5,"quiet":4.5,"tasty":5,"cheap":4.5,"music":5,"url":"https:\/\/www.facebook.com\/brewbandco","address":"\u53f0\u4e2d\u5e02\u5927\u7532\u5340\u6c11\u751f\u8def53\u5df715\u865f","latitude":"24.34680580","longitude":"120.62542500","limited_time":"no","socket":"yes","standing_desk":"yes","mrt":"","open_time":"13:00 - 22:00"},{"id":"49333cd6-c79a-4987-9cdd-35e188f9a70f","name":"\u7d05\u6afb\u6843\u5496\u5561\u9928","city":"taichung","wifi":0,"seat":0,"quiet":0,"tasty":0,"cheap":0,"music":0,"url":"","address":"436\u53f0\u4e2d\u5e02\u6e05\u6c34\u5340\u6587\u660c\u88571-11\u865f","latitude":"24.26950300","longitude":"120.57750800","limited_time":"","socket":"","standing_desk":"","mrt":"","open_time":""},{"id":"4b8d5b20-ec66-4ba5-aabc-1bce50c3f4a8","name":"\u539f\u7269\u5496\u5561\u516c\u76ca\u5e97","city":"taichung","wifi":5,"seat":5,"quiet":5,"tasty":5,"cheap":5,"music":5,"url":"https:\/\/www.facebook.com\/oxcafe.tw\/","address":"\u53f0\u4e2d\u5e02\u897f\u5340\u83ef\u7f8e\u897f\u8857\u4e00\u6bb53\u865f","latitude":"24.15122790","longitude":"120.65842490","limited_time":"","socket":"yes","standing_desk":"","mrt":"","open_time":""},{"id":"4c14140b-8c85-4779-9488-78e8ed5f7940","name":"1987\u5eda\u623f\u5de5\u4f5c\u5ba4","city":"taichung","wifi":5,"seat":5,"quiet":5,"tasty":5,"cheap":4,"music":5,"url":"https:\/\/www.facebook.com\/1987jam","address":"\u53f0\u4e2d\u5e02\u897f\u5340\u4e94\u6b0a\u897f\u8def\u4e00\u6bb557\u5df71\u5f045\u865f","latitude":"24.13980700","longitude":"120.66353600","limited_time":"no","socket":"yes","standing_desk":"yes","mrt":"","open_time":"\u6bcf\u9031\u4e8c\u516c\u4f11"},{"id":"4c388c3b-3746-4e3e-ba1b-6c9a417ec9eb","name":"Found \u627e\u00b7\u5496\u5561","city":"taichung","wifi":4,"seat":4,"quiet":4,"tasty":4,"cheap":3,"music":4,"url":"https:\/\/www.facebook.com\/foundcafes\/","address":"\u897f\u5340\u83ef\u7f8e\u8857348\u5df76\u865f","latitude":"24.15135470","longitude":"120.65925870","limited_time":"no","socket":"maybe","standing_desk":"no","mrt":"","open_time":""},{"id":"4d2b3996-b536-43d6-a3a4-e1000d58b20f","name":"Sweet Cafe","city":"taichung","wifi":0,"seat":3,"quiet":5,"tasty":5,"cheap":3,"music":3,"url":"https:\/\/www.facebook.com\/pages\/Sweet-Cafe\/143040699093705","address":"\u53f0\u4e2d\u5e02\u5357\u5340\u570b\u5149\u8def156\u4e4b8\u865f","latitude":"24.12770580","longitude":"120.67850950","limited_time":"no","socket":"maybe","standing_desk":"yes","mrt":"","open_time":""},{"id":"4d59cbaa-df04-4b03-a2d9-461b0f5eab48","name":"Colorful Coffee \u5361\u52d2\u8299\u624b\u611f\u5496\u5561","city":"taichung","wifi":5,"seat":5,"quiet":5,"tasty":5,"cheap":4.5,"music":5,"url":"https:\/\/www.facebook.com\/Colorfulcafe2\/","address":"\u53f0\u4e2d\u5e02\u897f\u5c6f\u5340\u897f\u5c6f\u8def\u4e8c\u6bb5284-6\u865f","latitude":"24.17725360","longitude":"120.64291970","limited_time":"maybe","socket":"yes","standing_desk":"no","mrt":"","open_time":"14:00-22:00                   \u9031\u65e5 12:00~18:00               \u9031\u56db\u4f11\u606f "},{"id":"4e17a2a7-642a-450c-99bc-23c1f7ed8f8d","name":"\u611b\u55ac\u4f0a\u70d8\u7119","city":"taichung","wifi":4,"seat":5,"quiet":4,"tasty":3,"cheap":3,"music":4,"url":"https:\/\/www.facebook.com\/2magpiesbakehouose\/","address":"\u53f0\u4e2d\u5e02\u897f\u5340\u5747\u5b89\u885782\u865f","latitude":"24.14690140","longitude":"120.67128300","limited_time":"maybe","socket":"maybe","standing_desk":"no","mrt":"","open_time":""},{"id":"51005db0-9b62-4cea-8633-e845c34029e9","name":"\u77f3\u5c1a\u81ea\u7136\u63a2\u7d22\u5c4b\u3010\u690d\u7269\u5712\u5e97\u3011","city":"taichung","wifi":5,"seat":3,"quiet":3,"tasty":5,"cheap":0,"music":0,"url":"https:\/\/www.facebook.com\/shishangBG\/","address":"\u53f0\u4e2d\u5e02\u5317\u5340\u9928\u524d\u8def\u4e00\u865f\uff0e\u690d\u7269\u5712B1","latitude":"24.15745730","longitude":"120.66642640","limited_time":"","socket":"","standing_desk":"","mrt":"","open_time":""},{"id":"51766bff-8b28-494e-894b-41ee239b7126","name":"MAPPER CAFE","city":"taichung","wifi":5,"seat":5,"quiet":5,"tasty":5,"cheap":5,"music":5,"url":"https:\/\/www.facebook.com\/MapperCafe\/","address":"\u53f0\u4e2d\u5e02\u5357\u5c6f\u5340\u4e2d\u53f0\u8def24-12\u865f","latitude":"24.13683100","longitude":"120.60082800","limited_time":"no","socket":"maybe","standing_desk":"no","mrt":"","open_time":"10:00~17:00"},{"id":"51b16d4e-9e88-4fcd-bf51-7b7136ed014d","name":"LightBeam Coffee Roasters","city":"taichung","wifi":5,"seat":4,"quiet":4,"tasty":5,"cheap":4,"music":4,"url":"lightbeamcoffeeroasters.com","address":"404\u53f0\u4e2d\u5e02\u5317\u5340\u8208\u9032\u8def165\u865f","latitude":"24.15550100","longitude":"120.68964900","limited_time":"no","socket":"maybe","standing_desk":"no","mrt":"","open_time":"\u4e0d\u5b9a\u671f\u516c\u4f11"},{"id":"52b32eb4-c261-4b65-92cc-1d0881a4b114","name":"\u9732\u6613\u838e","city":"taichung","wifi":0,"seat":0,"quiet":0,"tasty":0,"cheap":0,"music":0,"url":"","address":"\u7acb\u5fb7\u8857","latitude":"25.00851970","longitude":"121.48623150","limited_time":"","socket":"","standing_desk":"","mrt":"","open_time":""},{"id":"52d04a1b-e5cd-4247-a78b-3154eaa06c2d","name":"Monospace \u5171\u540c\u5de5\u4f5c\u7a7a\u9593","city":"taichung","wifi":5,"seat":5,"quiet":4,"tasty":5,"cheap":5,"music":5,"url":"https:\/\/www.facebook.com\/monospace.tw\/","address":"\u53f0\u4e2d\u5e02\u897f\u5340\u81fa\u7063\u5927\u9053\u4e8c\u6bb52\u865f16F-2","latitude":"24.14796120","longitude":"120.67350560","limited_time":"no","socket":"yes","standing_desk":"yes","mrt":"","open_time":""},{"id":"53ceb453-d8b6-4e9a-bbac-8ee71b753156","name":"single place coffee lab.","city":"taichung","wifi":5,"seat":5,"quiet":5,"tasty":5,"cheap":5,"music":5,"url":"https:\/\/m.facebook.com\/singleplacecoffeelab\/","address":"\u53f0\u4e2d\u5e02\u5317\u5340\u4e00\u4e2d\u8857167\u5df73\u865f","latitude":"24.15137750","longitude":"120.68579940","limited_time":"no","socket":"yes","standing_desk":"no","mrt":"","open_time":""},{"id":"53da0788-717f-40ef-b833-d54d54f2e1b2","name":"\u76e7\u4ed5 Luscoffee","city":"taichung","wifi":4.5,"seat":4.5,"quiet":5,"tasty":5,"cheap":4.5,"music":5,"url":"https:\/\/www.facebook.com\/%E7%9B%A7%E4%BB%95-LusCoffee-302070613335588\/?fref=ts","address":"\u53f0\u4e2d\u5e02\u897f\u5340\u7f8e\u6751\u8def\u4e00\u6bb5771\u5df716\u865f","latitude":"24.13306620","longitude":"120.66227620","limited_time":"maybe","socket":"maybe","standing_desk":"no","mrt":"","open_time":""},{"id":"542db829-11e4-4525-8733-82c12710ba94","name":"\u516d\u865f\u8c93\u6d1e","city":"taichung","wifi":4,"seat":4,"quiet":4,"tasty":4,"cheap":3,"music":5,"url":"https:\/\/www.facebook.com\/catlair6\/","address":"\u53f0\u4e2d\u5e02\u5317\u5340\u5357\u4eac\u6771\u8def2\u6bb513\u865f","latitude":"24.15264770","longitude":"120.69769170","limited_time":"no","socket":"no","standing_desk":"no","mrt":"","open_time":"15:00 - 22:00"},{"id":"56239d36-05ce-469f-beec-1289383ba4f5","name":"\u4f2f\u6717\u5496\u5561\u9928 (\u6771\u6d77\u5927\u5b78\u5e97)","city":"taichung","wifi":5,"seat":5,"quiet":4,"tasty":5,"cheap":4,"music":4,"url":"","address":"\u53f0\u4e2d\u5e02\u897f\u5c6f\u5340\u53f0\u7063\u5927\u9053\u56db\u6bb51727\u865f \u6771\u6d77\u5927\u5b78\u5716\u66f8\u99281\u6a13","latitude":"24.17973910","longitude":"120.59610940","limited_time":"no","socket":"maybe","standing_desk":"no","mrt":"","open_time":""},{"id":"563693bc-10af-4f93-b646-4d7c7ab324fb","name":"\u5bb6\u5496\u5561","city":"taichung","wifi":5,"seat":5,"quiet":5,"tasty":5,"cheap":5,"music":5,"url":"","address":"\u53f0\u4e2d\u5e02\u897f\u5340\u7cbe\u8aa0\u8def3-1\u865f","latitude":"24.15673590","longitude":"120.65706010","limited_time":"no","socket":"yes","standing_desk":"yes","mrt":"","open_time":""},{"id":"56428521-2584-4987-8759-4bebaf6872ea","name":"\u4ee5\u4fbf\u4ee5\u8b1d\u5496\u5561","city":"taichung","wifi":5,"seat":3,"quiet":3,"tasty":5,"cheap":5,"music":5,"url":"https:\/\/www.facebook.com\/papicoffee","address":"\u53f0\u4e2d\u5e02\u4e2d\u5340\u7e7c\u5149\u885759\u865f","latitude":"24.13849230","longitude":"120.68179810","limited_time":"no","socket":"maybe","standing_desk":"no","mrt":"","open_time":"08:00~15:30"},{"id":"5690c398-425c-40a7-8cf5-b00cb6b90392","name":"\u51f1\u5ea6\u9ad8\u7a7a\u5496\u5561","city":"taichung","wifi":3,"seat":5,"quiet":4,"tasty":5,"cheap":5,"music":4,"url":"\u51f1\u5ea6\u9ad8\u7a7a\u5496\u5561\u9928","address":"\u53f0\u4e2d\u5e02\u897f\u5340\u53f0\u7063\u5927\u9053\u4e8c\u6bb52\u865f20\u6a13","latitude":"24.14824210","longitude":"120.67354060","limited_time":"no","socket":"maybe","standing_desk":"yes","mrt":"","open_time":""},{"id":"57bb09ec-a2e7-49c5-b27d-bd1a2d00f2af","name":"\u73c8\u7432\u9662","city":"taichung","wifi":5,"seat":4.5,"quiet":5,"tasty":5,"cheap":5,"music":5,"url":"https:\/\/www.facebook.com\/coffeeareatw","address":"403\u53f0\u4e2d\u5e02\u897f\u5340\u5b58\u4e2d\u8857165\u865f","latitude":"24.14107720","longitude":"120.65649540","limited_time":"no","socket":"no","standing_desk":"no","mrt":"","open_time":""},{"id":"57cb3eb8-3972-47b0-91b5-3395aa33790d","name":"\u6a02\u5b89\u5496\u5561Lean coffee","city":"taichung","wifi":4,"seat":5,"quiet":5,"tasty":4,"cheap":3,"music":4,"url":"https:\/\/www.facebook.com\/pg\/%E6%A8%82%E5%AE%89-%E5%92%96%E5%95%A1%E7%94%9C%E9%A3%9F%E5%B7%A5%E4%BD%9C%E5%AE%A4-136232003158635\/about\/","address":"\u897f\u5c6f\u5340\u798f\u96c5\u8def128\u5df748\u865f","latitude":"24.18506030","longitude":"120.62049200","limited_time":"no","socket":"no","standing_desk":"yes","mrt":"","open_time":""},{"id":"5921e3be-82ca-43bf-9ffd-1c195ad39118","name":"\u8c6c\u6cb9\u3001\u5496\u5561\u8207\u95b1\u8b80","city":"taichung","wifi":0,"seat":5,"quiet":5,"tasty":5,"cheap":5,"music":3,"url":"https:\/\/www.facebook.com\/ti.iucaffenreading\/","address":"\u53f0\u4e2d\u5e02\u6e05\u6c34\u5340\u4e2d\u6b63\u885771\u865f","latitude":"24.26301750","longitude":"120.57039750","limited_time":"no","socket":"maybe","standing_desk":"yes","mrt":"","open_time":"9:00~21:00"},{"id":"5965231e-58db-445c-a895-a04d70e70978","name":"\u5df4\u83f2\u7279\u5496\u5561","city":"taichung","wifi":0,"seat":0,"quiet":0,"tasty":0,"cheap":0,"music":0,"url":"","address":"436\u53f0\u4e2d\u5e02\u6e05\u6c34\u5340\u5927\u8857\u8def105\u865f","latitude":"24.27020500","longitude":"120.57901500","limited_time":"","socket":"","standing_desk":"","mrt":"","open_time":""},{"id":"59707758-3aa2-4234-b280-b63b092e6505","name":"\u5c0f\u89d2\u624b\u637b\u5496\u5561","city":"taichung","wifi":0,"seat":5,"quiet":5,"tasty":5,"cheap":3,"music":5,"url":"https:\/\/www.facebook.com\/%E5%B0%8F%E8%A7%92-%E6%89%8B%E6%8D%BB%E5%92%96%E5%95%A1-208445399731162\/","address":"408 \u53f0\u4e2d\u5e02\u5357\u5c6f\u5340\u5927\u58a9\u5341\u8857360\u865f","latitude":"24.14787550","longitude":"120.64509880","limited_time":"maybe","socket":"no","standing_desk":"no","mrt":"","open_time":""},{"id":"5a579b54-7fc5-4f57-b5d1-78456850828d","name":"\u7b54\u9ed8\u5496\u5561\u5de5\u4f5c\u5ba4","city":"taichung","wifi":5,"seat":5,"quiet":4.5,"tasty":5,"cheap":4.5,"music":5,"url":"https:\/\/www.facebook.com\/DMCoffeeWorkshop\/","address":"\u53f0\u4e2d\u5e02\u897f\u5c6f\u5340\u570b\u5b89\u4e00\u8def165\u865f","latitude":"24.19179270","longitude":"120.61177170","limited_time":"no","socket":"yes","standing_desk":"yes","mrt":"","open_time":""},{"id":"5abc1ccf-f699-4bd5-a4e0-57fd698bacaa","name":"\u4ea8\u5229\u8c9e\u7cbe\u54c1\u5496\u5561\u9928","city":"taichung","wifi":5,"seat":5,"quiet":4.5,"tasty":5,"cheap":5,"music":5,"url":"https:\/\/www.facebook.com\/henryjanecoffee\/?fref=ts","address":"\u81fa\u4e2d\u5e02\u5927\u91cc\u5340\u897f\u69ae\u8def203\u865f","latitude":"24.10952680","longitude":"120.68622580","limited_time":"no","socket":"maybe","standing_desk":"no","mrt":"","open_time":"12:00~20:00"},{"id":"5bfcf70e-c6e4-4194-a353-312dbf2d50bf","name":"\u5c0f\u5fc3\u5730\u6ed1","city":"taichung","wifi":0,"seat":0,"quiet":0,"tasty":0,"cheap":0,"music":0,"url":"https:\/\/www.facebook.com\/cautionwetfloorcafe\/","address":"\u53f0\u4e2d\u5e02\u5357\u5340\u8208\u5927\u8def145\u865f \u4e2d\u8208\u5927\u5b78\u5716\u66f8\u9928B1\u8208\u95b1\u574a","latitude":"24.11975130","longitude":"120.67426000","limited_time":"no","socket":"maybe","standing_desk":"","mrt":"","open_time":"\u9031\u516d\u71df\u696d\u5730\u9ede\u5728\u96f2\u5e73\u6a13F03"},{"id":"5c37d887-2a8f-4c5d-88c0-5e835d76c5ae","name":"\u65c5\u884c\u55ab\u8336\u5e97","city":"taichung","wifi":5,"seat":5,"quiet":5,"tasty":5,"cheap":4,"music":5,"url":"https:\/\/zh-tw.facebook.com\/%E6%97%85%E8%A1%8C%E5%96%AB%E8%8C%B6%E5%BA%97-777210312337746\/","address":"\u81fa\u4e2d\u5e02\u897f\u5340\u897f\u5c6f\u8def\u4e00\u6bb5147-13\u865f(\u641c\u5c0b\u897f\u5c6f\u8def\u4e00\u6bb5170\u865f\u6f6e\u5dde\u96de\u6e6f\u934b\uff0c\u6b63\u5c0d\u9762\u5df7\u5b50\u88e1)","latitude":"24.15244500","longitude":"120.67076400","limited_time":"no","socket":"yes","standing_desk":"yes","mrt":"","open_time":"\u5076\u723e\u51fa\u570b\u627e\u597d\u6599\u516c\u4f11\u65e5\u8981\u53c3\u8003\u5b98\u7db2"},{"id":"5ceda4d2-9731-4d0e-88b8-b0d781744b6c","name":"\u5341\u4e00\u7cbe\u54c1\u5496\u5561 Potion 11 Cafe","city":"taichung","wifi":5,"seat":5,"quiet":4,"tasty":5,"cheap":5,"music":4,"url":"https:\/\/www.facebook.com\/potion11cafe","address":"\u53f0\u4e2d\u5e02\u897f\u5340\u5927\u58a911\u885721\u865f","latitude":"24.14883590","longitude":"120.65393040","limited_time":"maybe","socket":"no","standing_desk":"no","mrt":"","open_time":""},{"id":"5d796ae3-1be2-4ae3-8076-8fb2c26bf6f1","name":"\u5708Charm\u76f4\u706b\u70d8\u8c46\u6240","city":"taichung","wifi":0,"seat":0,"quiet":0,"tasty":0,"cheap":0,"music":0,"url":"","address":"\u53f0\u4e2d\u5e02\u897f\u5340\u516c\u76ca\u8def115\u865f","latitude":"24.15061310","longitude":"120.66601590","limited_time":"","socket":"","standing_desk":"","mrt":"","open_time":""},{"id":"5dadf42b-1c02-4ea5-bb18-efcdfcc3037a","name":"\u5927\u9580\u5496\u5561","city":"taichung","wifi":5,"seat":4,"quiet":2,"tasty":4,"cheap":5,"music":3,"url":"https:\/\/www.facebook.com\/bigdoorcoffee\/","address":"\u53f0\u4e2d\u5e02\u5927\u91cc\u5340\u4ec1\u798f\u885710\u865f","latitude":"24.09491460","longitude":"120.70057520","limited_time":"maybe","socket":"yes","standing_desk":"no","mrt":"","open_time":""},{"id":"5e27a9bd-a4e3-433c-b329-afa05686ceb1","name":"\u6eaa\u908a\u5341\u4e09","city":"taichung","wifi":0,"seat":5,"quiet":5,"tasty":5,"cheap":4,"music":4,"url":"","address":"\u53f0\u4e2d\u5e02\u5357\u5c6f\u5340\u74b0\u4e2d\u8def\u4e94\u6bb5200\u865f","latitude":"24.11783980","longitude":"120.63921980","limited_time":"no","socket":"maybe","standing_desk":"yes","mrt":"","open_time":""},{"id":"5e6a4cc6-778b-4cb2-b2be-547c649ee589","name":"255LAB caf\u00e9","city":"taichung","wifi":0,"seat":0,"quiet":0,"tasty":0,"cheap":0,"music":0,"url":"","address":"\u53f0\u4e2d\u5e02\u5317\u5c6f\u5340\u5d07\u5fb7\u8def\u4e8c\u6bb5255\u865f","latitude":"24.17638490","longitude":"120.68555780","limited_time":"","socket":"","standing_desk":"","mrt":"","open_time":""},{"id":"5e952c8c-1196-49fb-af8b-8bdfe9ecb78b","name":"coffee talks \u982d\u9760\u5496\u5561","city":"taichung","wifi":5,"seat":5,"quiet":5,"tasty":5,"cheap":5,"music":5,"url":"\u81c9\u66f8\u641c\u5c0b\u982d\u9760\u5496\u5561","address":"\u53f0\u4e2d\u5e02\u5317\u5340\u4e94\u5e38\u8857217\u865f","latitude":"24.16003030","longitude":"120.67983430","limited_time":"no","socket":"yes","standing_desk":"yes","mrt":"","open_time":""},{"id":"5f61bd7c-0de1-480d-9d28-79bb568b29ef","name":"Nunchuk \u62ff\u7ff9\u5496\u5561","city":"taichung","wifi":4.5,"seat":4.5,"quiet":4,"tasty":4.5,"cheap":4.5,"music":4.5,"url":"https:\/\/www.facebook.com\/SOCIAL.LUBRICATION\/","address":"\u53f0\u4e2d\u5e02\u897f\u5340\u4e2d\u8208\u8857285\u5df713\u5f0413\u865f","latitude":"24.15347600","longitude":"120.66246900","limited_time":"","socket":"maybe","standing_desk":"yes","mrt":"","open_time":"\u9031\u65e5\u5230\u9031\u4e0914:00 - 23:30\u3001\u9031\u4e94\u5230\u9031\u516d14:00-24:00\u3001\u9031\u56db\u516c\u4f11"},{"id":"60160718-86aa-49c1-9030-b838b0098035","name":"Now Place","city":"taichung","wifi":5,"seat":3,"quiet":4,"tasty":4,"cheap":3,"music":4,"url":"https:\/\/www.facebook.com\/Nowplace.fc\/","address":"\u53f0\u4e2d\u5e02\u897f\u5c6f\u5340\u798f\u4e0a\u5df7321-1\u865f","latitude":"24.17502090","longitude":"120.64579840","limited_time":"no","socket":"maybe","standing_desk":"no","mrt":"","open_time":""},{"id":"61ad0967-682b-4bba-aaf9-b93dbeeea6a0","name":"\u65b0\u92b3\u5496\u5561\u570b\u6cf0\u5e97","city":"taichung","wifi":5,"seat":4,"quiet":4,"tasty":4,"cheap":5,"music":4,"url":"","address":"404\u53f0\u4e2d\u5e02\u5317\u5340\u570b\u6cf0\u885736\u865f","latitude":"24.15997880","longitude":"120.69757070","limited_time":"no","socket":"maybe","standing_desk":"yes","mrt":"","open_time":""},{"id":"61f57dd6-de9b-4a8f-8413-a368b9b8f5a1","name":"\u753a\u8d70\u99ac","city":"taichung","wifi":4,"seat":5,"quiet":5,"tasty":5,"cheap":5,"music":5,"url":"","address":"\u81fa\u4e2d\u5e02\u897f\u5340\u5927\u5168\u885752\u865f","latitude":"24.13596570","longitude":"120.67089080","limited_time":"no","socket":"no","standing_desk":"no","mrt":"","open_time":""},{"id":"62cddb0f-a160-4df2-8cb5-b2624141255c","name":"Cafe PPM","city":"taichung","wifi":5,"seat":5,"quiet":4.5,"tasty":5,"cheap":5,"music":5,"url":"https:\/\/www.facebook.com\/CafePPM\/","address":"\u53f0\u4e2d\u5e02\u5927\u91cc\u5340\u81ea\u7acb\u8def91\u865f","latitude":"24.10349100","longitude":"120.69847140","limited_time":"maybe","socket":"yes","standing_desk":"yes","mrt":"","open_time":"11:00 - 20:30"},{"id":"634cf8d8-8878-4091-9cc8-7cbca951b5a1","name":"\u6f2b\u6642\u610f\u5883","city":"taichung","wifi":5,"seat":5,"quiet":5,"tasty":5,"cheap":4,"music":4,"url":"https:\/\/www.facebook.com\/LHTeaTime\/?ref=aymt_homepage_panel","address":"\u53f0\u4e2d\u5e02\u5317\u5c6f\u5340\u5efa\u548c\u8def\u4e00\u6bb520\u865f","latitude":"24.15851200","longitude":"120.71701030","limited_time":"no","socket":"yes","standing_desk":"no","mrt":"","open_time":"\u9810\u7d04\u5f0f\u53ca\u9031\u4e94~\u9031\u4e8c: 14:00 - 19:30"},{"id":"634d3a9a-491b-4b3a-ad5f-e710f8355011","name":"\u76ee\u89ba\u5496\u5561 trio\u5e97","city":"taichung","wifi":5,"seat":4,"quiet":3,"tasty":4,"cheap":3,"music":5,"url":"","address":"\u53f0\u4e2d\u5e02\u897f\u5340\u7cbe\u8aa0\u4e03\u88571\u865f","latitude":"24.15515030","longitude":"120.65622290","limited_time":"no","socket":"maybe","standing_desk":"no","mrt":"","open_time":""},{"id":"63cd50c6-30be-4157-af79-9dabaebe2501","name":"\u3010\u6b50\u5ba2\u4f6c\u3011\u53f0\u4e2d\u592a\u539f\u5e97\u5275\u59cb\u5e97","city":"taichung","wifi":5,"seat":5,"quiet":4,"tasty":5,"cheap":4,"music":5,"url":"https:\/\/www.facebook.com\/oklaocoffee\/?ref=bookmarks","address":"\u53f0\u4e2d\u5e02\u5317\u5340\u5d07\u5fb7\u8def\u4e00\u6bb5517\u865f","latitude":"24.16494500","longitude":"120.68477700","limited_time":"no","socket":"maybe","standing_desk":"no","mrt":"","open_time":""},{"id":"63cf8078-a5a6-4f50-b4cb-bee44119cc28","name":"\u6162\u6c34","city":"taichung","wifi":0,"seat":0,"quiet":0,"tasty":4,"cheap":5,"music":5,"url":"https:\/\/www.facebook.com\/pg\/%E6%85%A2%E6%B0%B4-315590232549608\/about\/?ref=page_internal","address":"\u53f0\u4e2d\u5e02\u9f8d\u4e95\u5340\u85dd\u8853\u5357\u8857\u4e94\u5df7\u4e00\u865f","latitude":"24.18699760","longitude":"120.59450280","limited_time":"no","socket":"no","standing_desk":"no","mrt":"","open_time":""},{"id":"648ed9a5-08e1-4bf8-867e-74a5951908d6","name":"Cantata Kahve \u574e\u5854\u5854\u5496\u5561\u574a","city":"taichung","wifi":5,"seat":4,"quiet":5,"tasty":5,"cheap":4,"music":5,"url":"https:\/\/www.facebook.com\/cantatakahve\/","address":"\u81fa\u4e2d\u5e02\u897f\u5c6f\u5340\u6587\u83ef\u8def162\u5df736\u865f","latitude":"24.18343910","longitude":"120.64700360","limited_time":"no","socket":"maybe","standing_desk":"no","mrt":"","open_time":"\u505c\u6b62\u71df\u696d"},{"id":"655c2613-38be-48e7-95ff-147447aee588","name":"\u559d\u5496\u5561","city":"taichung","wifi":5,"seat":4.5,"quiet":4,"tasty":4.5,"cheap":4,"music":4.5,"url":"https:\/\/www.facebook.com\/Living.tw\/","address":"\u53f0\u4e2d\u5e02\u6771\u8208\u8def\u4e00\u6bb529\u865f","latitude":"24.11961800","longitude":"120.65628600","limited_time":"","socket":"maybe","standing_desk":"no","mrt":"","open_time":"\u9031\u4e00~\u9031\u4e94 08:00-22:00 \u9031\u516d\u3001\u9031\u65e5 08:00-18:00"},{"id":"6571fa23-417d-4b49-9de3-70219975f665","name":"\u6771\u9e97\u98a8\u5e97\u8336\u82b1\u5496\u5561","city":"taichung","wifi":5,"seat":3,"quiet":3,"tasty":5,"cheap":0,"music":0,"url":"https:\/\/www.facebook.com\/donlicamellia243\/","address":"\u53f0\u4e2d\u5357\u5c6f\u5340\u6587\u5fc3\u5357\u4e94\u8def\u4e09\u6bb5243\u865f","latitude":"24.14406670","longitude":"120.63081820","limited_time":"","socket":"","standing_desk":"","mrt":"","open_time":""},{"id":"68698d61-40aa-4b1c-80d0-894100c2b2c0","name":"Roundabout Caf\u00e9","city":"taichung","wifi":4,"seat":4,"quiet":4,"tasty":4,"cheap":3,"music":5,"url":"https:\/\/www.facebook.com\/roundaboutcoffee\/","address":"\u53f0\u4e2d\u5e02\u897f\u5340\u5927\u548c\u8def73\u865f","latitude":"24.15002340","longitude":"120.66751790","limited_time":"maybe","socket":"maybe","standing_desk":"yes","mrt":"","open_time":"\u5e73\u65e511:00~21:00\uff0c\u5047\u65e59:00~21:00"},{"id":"68ce4f47-738b-4e7d-b142-a793ca4ae596","name":"\u4f50\u6728\u5496\u5561\u5c08\u8ce3\u5e97","city":"taichung","wifi":0,"seat":0,"quiet":0,"tasty":0,"cheap":0,"music":0,"url":"","address":"\u53f0\u4e2d\u5e02\u8c50\u539f\u5340\u5357\u967d\u8def324\u865f","latitude":"24.24610300","longitude":"120.72610200","limited_time":"no","socket":"no","standing_desk":"no","mrt":"","open_time":"\u5df2\u5728Google map\u986f\u793a\u6c38\u4e45\u6b47\u696d"},{"id":"68dca33f-0b0d-48d1-b20f-606a14a2ee79","name":"Elk Cafe  \u8def\uff0c\u9e7f\u5496\u5561","city":"taichung","wifi":4,"seat":4,"quiet":5,"tasty":5,"cheap":4,"music":4,"url":"https:\/\/www.facebook.com\/Elk-Cafe-%E8%B7%AF%E9%B9%BF%E5%92%96%E5%95%A1-117920325225006\/","address":"412 \u53f0\u4e2d\u5e02\u5927\u91cc\u5340\u74b0\u4e2d\u6771\u8def\u4e94\u6bb5628-1\u865f","latitude":"24.11652890","longitude":"120.69984470","limited_time":"no","socket":"maybe","standing_desk":"yes","mrt":"","open_time":"13:00 - 21:00"},{"id":"69b90fe0-6d58-40b0-9586-5e3cf3ea98be","name":"\u62db\u8ca1\u5496\u5561\u8216","city":"taichung","wifi":0,"seat":0,"quiet":0,"tasty":0,"cheap":0,"music":0,"url":"","address":"\u53f0\u4e2d\u5e02\u897f\u5340\u6885\u5ddd\u897f\u8def\u4e00\u6bb537\u865f","latitude":"24.14313900","longitude":"120.66808400","limited_time":"","socket":"","standing_desk":"","mrt":"","open_time":""},{"id":"6a3ce865-b6b8-487c-801b-94a6af0fd163","name":"edia cafe","city":"taichung","wifi":5,"seat":5,"quiet":5,"tasty":5,"cheap":3,"music":4,"url":"https:\/\/www.facebook.com\/ediacafe","address":"\u53f0\u4e2d\u5e02\u5357\u5c6f\u5340\u5927\u9032\u8857691\u865f","latitude":"24.15591860","longitude":"120.65201930","limited_time":"no","socket":"","standing_desk":"no","mrt":"","open_time":""},{"id":"6abd0fba-0296-457c-a9de-dceb68878c6d","name":"\u7562\u6d1b\u96c5\u7cbe\u9078\u5496\u5561\u9928","city":"taichung","wifi":5,"seat":5,"quiet":5,"tasty":5,"cheap":5,"music":4,"url":"\u7562\u6d1b\u96c5\u7cbe\u9078\u5496\u5561","address":"\u53f0\u4e2d\u5e02\u897f\u5340\u6797\u68ee\u8def194\u865f","latitude":"24.13992050","longitude":"120.66835890","limited_time":"maybe","socket":"yes","standing_desk":"no","mrt":"","open_time":""},{"id":"6bf2732b-aef8-4daf-aa68-4bac662cc71d","name":"\u4e2d\u83f2\u5496\u5561","city":"taichung","wifi":0,"seat":0,"quiet":0,"tasty":0,"cheap":0,"music":0,"url":"","address":"403\u53f0\u4e2d\u5e02\u897f\u5340\u56db\u7dad\u885746\u865f","latitude":"24.13843070","longitude":"120.67483170","limited_time":"","socket":"","standing_desk":"","mrt":"","open_time":""},{"id":"6c546ce0-5911-477d-901f-35aca47e7d39","name":"\u4e2d\u57ce\u5496\u5561","city":"taichung","wifi":5,"seat":5,"quiet":5,"tasty":5,"cheap":4.5,"music":5,"url":"https:\/\/www.facebook.com\/midtownorgcafe\/","address":"\u53f0\u4e2d\u5e02\u5357\u5c6f\u5340\u4e94\u6b0a\u897f\u8def\u4e8c\u6bb51120\u865f","latitude":"24.14824390","longitude":"120.62775790","limited_time":"no","socket":"yes","standing_desk":"yes","mrt":"","open_time":""},{"id":"6fad0548-7e7b-49bd-8e6b-bfcca0f9b58d","name":"\u6797\u500d\u5496\u5561","city":"taichung","wifi":5,"seat":5,"quiet":5,"tasty":5,"cheap":5,"music":5,"url":"https:\/\/www.facebook.com\/linbeicoffee\/","address":"\u53f0\u4e2d\u5e02\u5317\u5340\u5929\u6d25\u8def\u4e8c\u6bb5157\u865f","latitude":"24.16993500","longitude":"120.67816100","limited_time":"no","socket":"yes","standing_desk":"yes","mrt":"","open_time":""},{"id":"6fe1bbb6-fe69-4c6e-87e3-d040b5c6857d","name":"Watashi Coffee","city":"taichung","wifi":4,"seat":4,"quiet":3,"tasty":4,"cheap":3,"music":4,"url":"","address":"406\u53f0\u4e2d\u5e02\u5317\u5c6f\u5340\u5efa\u548c\u8def\u4e8c\u6bb5108\u865f","latitude":"24.16986210","longitude":"120.72465010","limited_time":"","socket":"","standing_desk":"","mrt":"","open_time":""},{"id":"7047fead-0483-412a-ba76-bab7b6cc98ef","name":"\u6642\u9593\u8ef8\u98df\u5bbf\u5de5\u574a","city":"taichung","wifi":5,"seat":5,"quiet":5,"tasty":5,"cheap":5,"music":5,"url":"https:\/\/www.facebook.com\/timelinecafestudio\/","address":"\u53f0\u4e2d\u5e02\u9f8d\u4e95\u5340\u9060\u6771\u8857204\u5df718\u865f","latitude":"24.18837120","longitude":"120.59591120","limited_time":"no","socket":"maybe","standing_desk":"yes","mrt":"","open_time":""},{"id":"704c5b30-d24d-4fa7-891b-42585677e15d","name":"\u6c11\u751f\u5496\u5561 People & Life.Cafe","city":"taichung","wifi":5,"seat":4.5,"quiet":5,"tasty":5,"cheap":5,"music":5,"url":"https:\/\/www.facebook.com\/People.Life.Cafe","address":"\u53f0\u4e2d\u5e02\u897f\u5340\u6c11\u751f\u8def384\u865f","latitude":"24.14441540","longitude":"120.66126260","limited_time":"no","socket":"maybe","standing_desk":"no","mrt":"","open_time":"\u5e73\u65e5\uff1a11:00~20:00 \u5047\u65e5\uff1a11:00~22:00 \u516c\u4f11\u65e5\uff1a\u661f\u671f\u4e00"},{"id":"70b0d853-7a05-4208-967d-381a67c7a3e5","name":"amazing63","city":"taichung","wifi":5,"seat":3.5,"quiet":2.5,"tasty":4.5,"cheap":4,"music":3.5,"url":"https:\/\/www.facebook.com\/Amazing63coffee\/?fref=ts","address":"\u53f0\u4e2d\u5e02\u8c50\u539f\u5340\u5411\u967d\u8def6\u5df73\u865f","latitude":"24.25165300","longitude":"120.72132500","limited_time":"no","socket":"maybe","standing_desk":"yes","mrt":"","open_time":"\u4e0b\u53481\u9ede\u5230\u665a\u4e0a9\u9ede\uff0c\u79ae\u62dc\u4e09\u516c\u4f11"},{"id":"73c1ce24-6bc1-4905-993f-0915e357e584","name":"\u5561\u718a\u5496\u5561\u5de5\u574a","city":"taichung","wifi":5,"seat":5,"quiet":5,"tasty":5,"cheap":4,"music":5,"url":"https:\/\/www.facebook.com\/coffeebear613\/","address":"\u53f0\u4e2d\u5e02\u6c99\u9e7f\u5340\u5149\u83ef\u8def169\u865f","latitude":"24.23309690","longitude":"120.56211090","limited_time":"maybe","socket":"maybe","standing_desk":"no","mrt":"","open_time":""},{"id":"73d844da-a4a2-4c7f-bec9-cb9a9dad527b","name":"\u5fa9\u8208\u5496\u5561\u4ea4\u6613\u6240","city":"taichung","wifi":5,"seat":5,"quiet":4,"tasty":5,"cheap":4,"music":4,"url":"https:\/\/www.instagram.com\/fxcecoffee\/","address":"\u81fa\u4e2d\u5e02\u6771\u5340\u7acb\u5fb7\u885718\u865f","latitude":"24.13514420","longitude":"120.68604430","limited_time":"","socket":"maybe","standing_desk":"no","mrt":"","open_time":""},{"id":"740f7c11-6aa6-4142-af84-7333dc9095b2","name":"pifferia \u5288\u98db\u5229\u4e9e","city":"taichung","wifi":5,"seat":5,"quiet":5,"tasty":5,"cheap":5,"music":5,"url":"https:\/\/www.facebook.com\/pifferia\/","address":"\u53f0\u4e2d\u5e02\u5357\u5340\u53f0\u4e2d\u8def62\u865f","latitude":"24.13401240","longitude":"120.68299550","limited_time":"no","socket":"maybe","standing_desk":"yes","mrt":"","open_time":"\u534a\u591c\u8996\u4f86\u5ba2\u60c5\u6cc1\u5ef6\u9577\u6642\u9593"},{"id":"75346408-fa79-4707-a5bb-7813b9bc6754","name":"TerraBella(\u539f\u871c\u822b\u5496\u5561)","city":"taichung","wifi":0,"seat":4,"quiet":4,"tasty":5,"cheap":3,"music":3,"url":"","address":"403\u53f0\u4e2d\u5e02\u897f\u5340\u7cbe\u8aa0\u4e8c\u5341\u88572\u865f","latitude":"24.14809300","longitude":"120.65540500","limited_time":"","socket":"","standing_desk":"","mrt":"","open_time":""},{"id":"759dfde1-bed1-4b10-b668-0211d3d57043","name":"\u8c93\u722a\u5b50\u5496\u5561 Cat's Claw Brunch & Cafe'","city":"taichung","wifi":5,"seat":4.5,"quiet":4,"tasty":5,"cheap":4.5,"music":5,"url":"https:\/\/www.facebook.com\/CatsClawCafe\/","address":"\u53f0\u4e2d\u5e02\u5317\u5340\u5927\u5fb7\u8857131\u865f","latitude":"24.16048900","longitude":"120.67847510","limited_time":"no","socket":"yes","standing_desk":"no","mrt":"","open_time":"10:00 - 21:00 \u9031\u4e00\u516c\u4f11"},{"id":"75fe6e38-9395-4207-bc5b-21f260cdefda","name":"\u597d\u4e8b\u767c\u751f- Function House ","city":"taichung","wifi":3,"seat":5,"quiet":3,"tasty":4.5,"cheap":4,"music":5,"url":"https:\/\/www.facebook.com\/housefuction\/?fref=ts","address":"\u53f0\u4e2d\u5e02\u5317\u5340\u4e94\u7fa9\u8857149\u865f","latitude":"24.15402690","longitude":"120.68116300","limited_time":"no","socket":"yes","standing_desk":"yes","mrt":"","open_time":""},{"id":"76308da8-bcad-485a-bba4-761be5de8a1b","name":"EZ \u5496\u5561","city":"taichung","wifi":0,"seat":5,"quiet":3,"tasty":4,"cheap":5,"music":2,"url":"","address":"\u53f0\u4e2d\u5e02\u5317\u5340\u5065\u884c\u8def372\u865f","latitude":"24.15933690","longitude":"120.68252600","limited_time":"no","socket":"no","standing_desk":"no","mrt":"","open_time":"7:30~17:00"},{"id":"78ff34f0-356f-42de-8f6f-76f9d1376337","name":"\u5496\u5561\u610f\u5fd7","city":"taichung","wifi":0,"seat":0,"quiet":0,"tasty":0,"cheap":0,"music":0,"url":"https:\/\/www.facebook.com\/coffeewill\/","address":"\u53f0\u4e2d\u5e02\u897f\u5c6f\u5340\u81f3\u5584\u8def125\u865f","latitude":"24.17601800","longitude":"120.64259600","limited_time":"","socket":"","standing_desk":"","mrt":"","open_time":"\u9031\u4e00\uff5e\u4e09\u3001\u4e94\uff5e\u65e5\uff1a13:30 - 22:30 \u9031\u56db\u516c\u4f11"},{"id":"7a7cda58-2c69-4dc7-9d05-48184aace615","name":"TORAtart","city":"taichung","wifi":0,"seat":4,"quiet":2,"tasty":5,"cheap":3,"music":3,"url":"https:\/\/www.facebook.com\/TORAtart96\/","address":"\u53f0\u4e2d\u5e02\u897f\u5340\u65e5\u8208\u885796\u865f","latitude":"24.14925370","longitude":"120.67386690","limited_time":"no","socket":"yes","standing_desk":"no","mrt":"","open_time":""},{"id":"7b79f52f-39f4-45ed-82a5-0582a9f784da","name":"\u9752\u5ddd\u6d41","city":"taichung","wifi":0,"seat":0,"quiet":0,"tasty":0,"cheap":0,"music":0,"url":"","address":"436\u53f0\u4e2d\u5e02\u6e05\u6c34\u5340\u6e05\u6c34\u885722\u865f","latitude":"24.26937140","longitude":"120.57605840","limited_time":"","socket":"","standing_desk":"","mrt":"","open_time":""},{"id":"7baeae5f-c9ca-4bf8-9175-b3a6bb3416d7","name":"Belle Journ\u00e9e\u8c9d\u7235\u59ae\u6cd5\u5f0f\u9ede\u5fc3\u574a","city":"taichung","wifi":0,"seat":5,"quiet":4,"tasty":4,"cheap":4,"music":4,"url":"https:\/\/www.facebook.com\/Patisserie.BJ\/","address":"403\u53f0\u7063\u53f0\u4e2d\u5e02\u897f\u5340\u7cbe\u8aa0\u4e94\u885734\u865f","latitude":"24.15511900","longitude":"120.65779300","limited_time":"maybe","socket":"maybe","standing_desk":"no","mrt":"","open_time":""},{"id":"7c244255-357e-4090-9f6e-1f27cd860674","name":"\u6f84\u77f3\u5496\u5561\u852c\u98df\u5eda\u574a","city":"taichung","wifi":4,"seat":4,"quiet":3,"tasty":0,"cheap":5,"music":4,"url":"https:\/\/www.facebook.com\/ChengShiShuShiKaFeiChuFangchensvegDongXingDian\/","address":"\u53f0\u4e2d\u5dff\u5357\u5c6f\u5340\u6771\u8208\u8def\u4e09\u6bb5221\u865f","latitude":"24.15251900","longitude":"120.65302110","limited_time":"maybe","socket":"yes","standing_desk":"no","mrt":"","open_time":"9:00 - 22:00"},{"id":"7c9233e2-ef95-40bb-a9ab-d3ff5572418c","name":"Caf\u00e9 de Allur\u00e9 \u85be\u9e93\u5496\u5561","city":"taichung","wifi":5,"seat":5,"quiet":5,"tasty":5,"cheap":4,"music":5,"url":"https:\/\/www.facebook.com\/AllureSpecialtyCoffee\/","address":"406\u53f0\u4e2d\u5e02\u5317\u5c6f\u5340\u4e2d\u6e05\u897f\u4e8c\u885725\u865f","latitude":"24.17436000","longitude":"120.66833100","limited_time":"no","socket":"no","standing_desk":"no","mrt":"","open_time":""},{"id":"7e88acda-a731-4c5f-9806-45c6aaeb0438","name":"\u6f2b\u68ee\u6797\u5496\u5561","city":"taichung","wifi":0,"seat":0,"quiet":0,"tasty":0,"cheap":0,"music":0,"url":"","address":"406\u53f0\u7063\u53f0\u4e2d\u5e02\u5317\u5c6f\u5340\u83ef\u7f8e\u897f\u8857\u4e8c\u6bb5420\u865f","latitude":"24.17410100","longitude":"120.66776980","limited_time":"no","socket":"no","standing_desk":"","mrt":"","open_time":""},{"id":"7f8cb1b4-bdb6-49b7-9639-8e16e9e9ce94","name":"\u5f7c\u601d\u5496\u5561","city":"taichung","wifi":4,"seat":5,"quiet":4,"tasty":5,"cheap":5,"music":4,"url":"https:\/\/www.facebook.com\/pages\/category\/Coffee-Shop\/%E5%BD%BC%E6%80%9D%E5%92%96%E5%95%A1-1670797982998148\/","address":"402\u53f0\u4e2d\u5e02\u5357\u5340\u5fa9\u8208\u8def\u4e00\u6bb5416\u865f","latitude":"24.11618750","longitude":"120.65699420","limited_time":"no","socket":"maybe","standing_desk":"yes","mrt":"","open_time":""},{"id":"8019f58a-f53b-4e82-b4c2-6db8380a015a","name":"\u4f86\u798f\u597d\u4e8b LAUGH HOUSE","city":"taichung","wifi":5,"seat":4,"quiet":4,"tasty":4,"cheap":4,"music":4,"url":"https:\/\/www.facebook.com\/laughhouse.tc","address":"\u53f0\u4e2d\u5e02\u897f\u5340\u5fe0\u8aa0\u885770\u865f","latitude":"24.15258780","longitude":"120.66095410","limited_time":"no","socket":"yes","standing_desk":"yes","mrt":"","open_time":"1100-1930"},{"id":"8161daac-14ad-4e33-b2a6-efee2a7cb230","name":"\u7da0\u84cb\u8336\u9928 - \u6cb3\u5357\u5e97","city":"taichung","wifi":5,"seat":5,"quiet":2,"tasty":0,"cheap":3,"music":3,"url":"","address":"407\u53f0\u4e2d\u5e02\u897f\u5c6f\u5340\u6cb3\u5357\u8def\u4e8c\u6bb5278\u865f\u865f","latitude":"24.17503820","longitude":"120.64887050","limited_time":"no","socket":"yes","standing_desk":"no","mrt":"","open_time":""},{"id":"8166ac1a-2c4c-40b8-bc92-a82a77d28f54","name":"\u821e\u68ee\u5496\u5561","city":"taichung","wifi":0,"seat":5,"quiet":4,"tasty":5,"cheap":1,"music":5,"url":"","address":"406\u53f0\u4e2d\u5e02\u5317\u5c6f\u5340\u548c\u7965\u4e09\u885773\u865f","latitude":"24.17240280","longitude":"120.72654590","limited_time":"","socket":"","standing_desk":"","mrt":"","open_time":""},{"id":"8371e455-585c-40b7-b5b7-8d9adc488df2","name":"\u8def\u6613\u838e\u5496\u5561","city":"taichung","wifi":0,"seat":0,"quiet":0,"tasty":0,"cheap":0,"music":0,"url":"","address":"\u53f0\u4e2d\u5e02\u5317\u5340\u4e94\u5e38\u8857178\u865f","latitude":"24.15891410","longitude":"120.68010740","limited_time":"","socket":"","standing_desk":"","mrt":"","open_time":""},{"id":"83c981ea-4a00-4d68-b3ea-f5223f51e009","name":"Raven Coffee \u5e9c\u5f8c\u5e97","city":"taichung","wifi":5,"seat":5,"quiet":5,"tasty":5,"cheap":5,"music":5,"url":"https:\/\/www.facebook.com\/ravencoffee2023","address":"\u53f0\u4e2d\u5e02\u897f\u5340\u5e9c\u5f8c\u885730\u865f","latitude":"24.13652150","longitude":"120.67569000","limited_time":"no","socket":"yes","standing_desk":"yes","mrt":"","open_time":""},{"id":"840987b6-3041-4451-9c0d-d5d4e540c439","name":"Platform 13\u865f\u6708\u53f0","city":"taichung","wifi":5,"seat":5,"quiet":5,"tasty":5,"cheap":5,"music":5,"url":"https:\/\/www.facebook.com\/platform13cafe\/","address":"40857\u53f0\u4e2d\u5e02\u5357\u5c6f\u5340\u5927\u58a9\u4e00\u885798\u865f","latitude":"24.13814200","longitude":"120.65154300","limited_time":"no","socket":"no","standing_desk":"yes","mrt":"","open_time":""},{"id":"846e5135-5657-444b-b7cf-3362ae95bcf5","name":"\u8001\u9673\u5496\u5561L'espace caf'e","city":"taichung","wifi":0,"seat":0,"quiet":0,"tasty":0,"cheap":0,"music":0,"url":"","address":"\u53f0\u4e2d\u5e02\u897f\u5340\u4e94\u6b0a\u4e03\u885752\u865f","latitude":"24.13524400","longitude":"120.66350400","limited_time":"","socket":"","standing_desk":"","mrt":"","open_time":""},{"id":"85a7665f-96d1-4e8e-9252-692eff5822b0","name":"\u591a\u99ac\u5496\u5561\u5927\u5751\u5e97","city":"taichung","wifi":4,"seat":4,"quiet":5,"tasty":5,"cheap":4,"music":4,"url":"https:\/\/www.facebook.com\/TomarDakeng\/","address":"406\u53f0\u4e2d\u5e02\u5317\u5c6f\u5340\u6771\u5c71\u8def\u4e8c\u6bb533\u865f","latitude":"24.17937410","longitude":"120.74017800","limited_time":"no","socket":"maybe","standing_desk":"no","mrt":"","open_time":""},{"id":"8748776e-e5e8-4f7e-b05f-6007d6002d4c","name":"Our caf\u00e9 \u5967\u5152\u5496\u5561","city":"taichung","wifi":5,"seat":5,"quiet":5,"tasty":5,"cheap":5,"music":5,"url":"https:\/\/www.facebook.com\/ourcafe88\/","address":" \u53f0\u4e2d\u5e02\u5927\u5f18\u885782\u865f1F","latitude":"24.16391100","longitude":"120.66051540","limited_time":"no","socket":"yes","standing_desk":"yes","mrt":"","open_time":""},{"id":"87a3c048-5a9a-4f25-972f-dc65c8503b3a","name":"\u5c0f\u5e78\u798f\u5496\u5561","city":"taichung","wifi":5,"seat":4,"quiet":2,"tasty":4,"cheap":3,"music":4,"url":"http:\/\/mildcafe2015.pixnet.net\/blog","address":"\u53f0\u4e2d\u5e02\u8c50\u539f\u5340\u897f\u52e2\u8def690\u865f","latitude":"24.23485740","longitude":"120.70035400","limited_time":"no","socket":"yes","standing_desk":"","mrt":"","open_time":"09:00~18:00 \u9031\u4e00\u516c\u4f11"},{"id":"87c33496-72b8-4766-a70f-ed61af81829a","name":"\u6c83\u5496\u5561","city":"taichung","wifi":5,"seat":5,"quiet":4.5,"tasty":5,"cheap":5,"music":5,"url":"https:\/\/zh-tw.facebook.com\/worldrich.coffee\/","address":"\u53f0\u4e2d\u5e02\u897f\u5c6f\u5340\u897f\u5c6f\u8def\u4e8c\u6bb510-8\u865f","latitude":"24.16369640","longitude":"120.66256840","limited_time":"no","socket":"maybe","standing_desk":"yes","mrt":"","open_time":"AM07:30~PM08:00"},{"id":"87d4e518-c5be-4100-9f51-1a9ac3aca474","name":"\u79cb\u591a\u5496\u5561 Chiutio Coffee","city":"taichung","wifi":0,"seat":0,"quiet":0,"tasty":0,"cheap":0,"music":0,"url":"","address":"404\u53f0\u4e2d\u5e02\u5317\u5340\u5927\u5fb7\u885716\u865f","latitude":"24.15622400","longitude":"120.67919100","limited_time":"no","socket":"maybe","standing_desk":"yes","mrt":"","open_time":""},{"id":"8b663d07-f1da-4de1-a4ac-d33caf7a5c14","name":"\u96f2\u9053\u5496\u5561_\u672b\u5ee3\u9580\u5e02","city":"taichung","wifi":4,"seat":5,"quiet":5,"tasty":3,"cheap":3,"music":3,"url":"https:\/\/m.facebook.com\/coffeetree87","address":"\u53f0\u4e2d\u5e02\u8c50\u539f\u5340\u8c50\u967d\u8def87\u865f","latitude":"24.25132330","longitude":"120.72287080","limited_time":"no","socket":"yes","standing_desk":"yes","mrt":"","open_time":""},{"id":"8b726b48-7c20-4167-b643-ea1d801902c1","name":"Raven Coffee \u9022\u7532\u5e97","city":"taichung","wifi":5,"seat":5,"quiet":5,"tasty":5,"cheap":5,"music":5,"url":"https:\/\/www.facebook.com\/ravencoffee2017\/","address":"\u53f0\u4e2d\u5e02\u897f\u5c6f\u5340\u6cb3\u5357\u8def\u4e8c\u6bb5301\u5df758\u865f","latitude":"24.17212200","longitude":"120.64804970","limited_time":"no","socket":"yes","standing_desk":"yes","mrt":"","open_time":""},{"id":"8d694e1f-e28f-4c7a-9551-0aafdc7a6a20","name":"\u5496\u5561\u8449\u5e97","city":"taichung","wifi":4,"seat":4,"quiet":3.5,"tasty":4.5,"cheap":4,"music":4,"url":"https:\/\/www.facebook.com\/coffeeyeh116\/","address":"\u53f0\u4e2d\u5e02\u8c50\u539f\u5e02\u897f\u5b89\u885795-5\u865f","latitude":"24.24904130","longitude":"120.71207450","limited_time":"no","socket":"maybe","standing_desk":"no","mrt":"","open_time":""},{"id":"8daa3bb6-5901-4404-a56d-8548beb64441","name":"Coffee Stopover","city":"taichung","wifi":5,"seat":4.5,"quiet":4.5,"tasty":5,"cheap":5,"music":5,"url":"https:\/\/www.facebook.com\/coffeestopover\/","address":"\u53f0\u4e2d\u5e02\u897f\u5340\u6c11\u6b0a\u8def217\u5df724\u865f","latitude":"24.14799400","longitude":"120.66800800","limited_time":"no","socket":"maybe","standing_desk":"no","mrt":"","open_time":"11:00\uff5e20:00               \u661f\u671f\u65e5\u516c\u4f11"},{"id":"8db7e929-b519-4b2e-823d-205a8e6f1061","name":"\u5df4\u83f2\u7279\u5496\u5561\u9928","city":"taichung","wifi":0,"seat":0,"quiet":0,"tasty":0,"cheap":0,"music":0,"url":"","address":"436\u53f0\u4e2d\u5e02\u6e05\u6c34\u5340\u5fe0\u8c9e\u8def21\u865f2\u6a13","latitude":"24.27104750","longitude":"120.55840360","limited_time":"","socket":"","standing_desk":"","mrt":"","open_time":""},{"id":"8dc5e8ed-6ac6-4317-afa4-222771ccc04f","name":"\u4ec1\u5c07Caffeterry","city":"taichung","wifi":5,"seat":5,"quiet":5,"tasty":4,"cheap":5,"music":4,"url":"https:\/\/www.facebook.com\/caffeterry\/","address":"403\u53f0\u4e2d\u5e02\u897f\u5340\u4e94\u6b0a\u897f\u4e94\u885761\u865f","latitude":"24.13783760","longitude":"120.66029660","limited_time":"no","socket":"maybe","standing_desk":"","mrt":"","open_time":"\u516d\u65e512:35pm\u523010pm"},{"id":"8dea5bf1-a80c-4294-91fe-4970562ad0ad","name":" Yorimichi \u9806\u9053\u83d3\u5b50\u5e97","city":"taichung","wifi":5,"seat":4,"quiet":5,"tasty":5,"cheap":3,"music":5,"url":"https:\/\/www.facebook.com\/yorimichipatisserie\/","address":"\u53f0\u4e2d\u5e02\u6e05\u6c34\u5340\u93ae\u5357\u885781-2\u865f","latitude":"24.26822450","longitude":"120.57241680","limited_time":"maybe","socket":"maybe","standing_desk":"no","mrt":"","open_time":""},{"id":"8eeded2a-69e5-4785-8fe9-f5a878dec8e9","name":"Come.in.\u9032\u4f86\u3002\u5750 Hair salon & caf\u2019e","city":"taichung","wifi":0,"seat":0,"quiet":0,"tasty":0,"cheap":0,"music":0,"url":"","address":"\u53f0\u4e2d\u5e02\u8c50\u539f\u5340\u76f4\u8208\u885788\u865f1\u6a13","latitude":"24.25263200","longitude":"120.72731200","limited_time":"","socket":"","standing_desk":"","mrt":"","open_time":""},{"id":"8ff1d2b7-548b-40fb-bf77-2adfd0cab54a","name":"\u9edd\u8108\u5496\u5561","city":"taichung","wifi":5,"seat":5,"quiet":5,"tasty":5,"cheap":5,"music":4.5,"url":"https:\/\/m.facebook.com\/\u9edd\u8108\u5496\u5561-162520000821845\/?locale2=zh_TW","address":"\u53f0\u4e2d\u5e02\u5357\u5340\u53f0\u4e2d\u8def146\u5df74\u865f","latitude":"24.13131860","longitude":"120.68403070","limited_time":"no","socket":"yes","standing_desk":"no","mrt":"","open_time":""},{"id":"90be087f-364f-4ffc-9479-ebe06ca45ffc","name":"Raven Coffee \u5927\u9023\u5e97","city":"taichung","wifi":5,"seat":5,"quiet":5,"tasty":5,"cheap":5,"music":5,"url":"https:\/\/www.facebook.com\/ravencoffee2024","address":"\u81fa\u4e2d\u5e02\u5317\u5c6f\u5340\u5927\u9023\u8def\u4e8c\u6bb5135\u865f","latitude":"24.17587450","longitude":"120.68695950","limited_time":"no","socket":"yes","standing_desk":"yes","mrt":"","open_time":""},{"id":"91024fbc-7bfd-4953-a504-caa0f0ba97ea","name":"Cameza","city":"taichung","wifi":0,"seat":0,"quiet":0,"tasty":0,"cheap":0,"music":0,"url":"","address":"\u53f0\u4e2d\u5e02\u897f\u5340\u4e94\u6b0a\u897f\u4e94\u885720\u5df77\u865f","latitude":"24.13881360","longitude":"120.65957170","limited_time":"","socket":"","standing_desk":"","mrt":"","open_time":""},{"id":"917499aa-73eb-4c16-80e3-1accb8d11b22","name":"Cafe Buddha \u4f48\u9054\u5496\u5561","city":"taichung","wifi":3.5,"seat":4,"quiet":3,"tasty":4,"cheap":4,"music":4,"url":"https:\/\/www.facebook.com\/cafebuddha\/","address":"\u53f0\u4e2d\u5e02\u897f\u5c6f\u5340\u6587\u83ef\u8def\u6c38\u65b0\u5df77\u865f","latitude":"24.17671960","longitude":"120.64546980","limited_time":"no","socket":"maybe","standing_desk":"no","mrt":"","open_time":"12:00\u201302:00"},{"id":"91802aa9-fcfc-4442-9760-1d87af237932","name":"\u5561\u6587\u5b78-\u5927\u82f1\u5e97","city":"taichung","wifi":4.5,"seat":4,"quiet":4,"tasty":5,"cheap":4,"music":5,"url":"","address":"\u53f0\u4e2d\u5e02\u897f\u5340\u5927\u58a914\u8857265\u865f","latitude":"24.15225940","longitude":"120.64878950","limited_time":"no","socket":"maybe","standing_desk":"yes","mrt":"","open_time":"07:30-22:30"},{"id":"91a2a83f-14d4-437b-ad81-824b0d0bd6a6","name":"\u83ab\u723e\u70d8\u7119","city":"taichung","wifi":5,"seat":4,"quiet":5,"tasty":5,"cheap":4,"music":5,"url":" \u8309\u723e\u70d8\u7119 MoreBakery @MoreBakery20170702","address":"\u53f0\u4e2d\u5e02\u5317\u5340\u6f22\u53e3\u8def4\u6bb576\u865f","latitude":"24.16690730","longitude":"120.67599270","limited_time":"no","socket":"maybe","standing_desk":"no","mrt":"","open_time":""},{"id":"927c291a-c8d3-4f2c-b3bc-272709916561","name":"\u6ce2\u7d0b\u5496\u5561RIPPLE CAFE","city":"taichung","wifi":5,"seat":5,"quiet":5,"tasty":5,"cheap":5,"music":5,"url":"","address":"\u53f0\u4e2d\u5e02\u5927\u91cc\u5340\u6c38\u8208\u8def148\u865f\u4e00\u6a13","latitude":"24.10959600","longitude":"120.68202100","limited_time":"no","socket":"maybe","standing_desk":"no","mrt":"","open_time":""},{"id":"92c267f0-f136-4cd6-97ea-cd31a9bea80c","name":"G.T. \u89e3\u6182\u5496\u5561\u9928","city":"taichung","wifi":0,"seat":0,"quiet":0,"tasty":0,"cheap":0,"music":0,"url":"","address":"436\u53f0\u4e2d\u5e02\u6e05\u6c34\u5340\u6c11\u6709\u8def120\u5df7122\u865f","latitude":"24.27915160","longitude":"120.57033670","limited_time":"","socket":"","standing_desk":"","mrt":"","open_time":""},{"id":"92e44723-943a-431a-8e2b-3a6eddd1fe98","name":"11\u53f7\u5009\u5eab","city":"taichung","wifi":5,"seat":5,"quiet":5,"tasty":5,"cheap":5,"music":5,"url":"https:\/\/www.facebook.com\/11warehousecafe\/","address":" \u53f0\u4e2d\u5e02\u5317\u5340\u9032\u5316\u5317\u8def375\u865f","latitude":"24.16306890","longitude":"120.67804640","limited_time":"no","socket":"maybe","standing_desk":"yes","mrt":"","open_time":"11:00am - 20:00pm"},{"id":"930a14a2-7173-4174-8df9-740502a96676","name":"\u864e\u59d1\u5a46\u70d8\u7119\u574a","city":"taichung","wifi":5,"seat":5,"quiet":5,"tasty":4,"cheap":4,"music":4,"url":"https:\/\/www.facebook.com\/\u864e\u59d1\u5a46\u70d8\u57f9\u574a-Lady-Tiger\u6bcf\u5468\u65e5\u5468\u4e00\u5e97\u4f11-106465272881585\/","address":"\u53f0\u4e2d\u5e02\u5357\u5340\u570b\u5149\u8def387-6\u865f","latitude":"24.11990360","longitude":"120.68054170","limited_time":"no","socket":"maybe","standing_desk":"no","mrt":"","open_time":"11:00~21:00                  \u661f\u671f\u65e5\u3001\u4e00\u516c\u4f11"},{"id":"932ffe1f-2e36-4b4e-874d-06c41447c6c2","name":"Coffee The Hammer","city":"taichung","wifi":0,"seat":0,"quiet":0,"tasty":0,"cheap":0,"music":0,"url":"https:\/\/m.facebook.com\/CoffeeTheHammer\/","address":"\u53f0\u4e2d\u5e02\u4e2d\u5340\u53f0\u7063\u5927\u9053\u4e00\u6bb5259\u865f","latitude":"24.14116560","longitude":"120.68082250","limited_time":"no","socket":"maybe","standing_desk":"yes","mrt":"","open_time":""},{"id":"93a4ead8-e95a-4876-b0c2-48e6bee62d77","name":"136 Caf\u00e9 Terry","city":"taichung","wifi":4,"seat":3,"quiet":4,"tasty":5,"cheap":3,"music":4,"url":"","address":"\u53f0\u4e2d\u5e02\u5357\u5c6f\u5340\u5927\u82f1\u8857422\u865f","latitude":"24.15153480","longitude":"120.64873090","limited_time":"","socket":"","standing_desk":"","mrt":"","open_time":""},{"id":"93bb9393-f0ef-4722-86d5-76a6d0a0658f","name":"Cafe Hello","city":"taichung","wifi":5,"seat":4,"quiet":5,"tasty":5,"cheap":5,"music":4,"url":"https:\/\/www.facebook.com\/CafeHelloBrunch\/","address":"\u53f0\u4e2d\u5e02\u5357\u5c6f\u5340\u5927\u82f1\u88579\u865f","latitude":"24.14134400","longitude":"120.64876400","limited_time":"","socket":"maybe","standing_desk":"yes","mrt":"","open_time":""},{"id":"9575da0a-378c-4a66-950b-52dbc5e1e04c","name":"\u746a\u767b\u5e03\u9b6f Bluesomeone's Vegan Cafe'","city":"taichung","wifi":5,"seat":5,"quiet":5,"tasty":5,"cheap":3,"music":5,"url":"http:\/\/www.bluesomeonestudio.com","address":"\u53f0\u4e2d\u5e02\u6c11\u6b0a\u8def53\u5df73-1\u865f","latitude":"24.13640890","longitude":"120.68095380","limited_time":"maybe","socket":"no","standing_desk":"no","mrt":"","open_time":"11:30 - 21:00"},{"id":"9893bfb0-e1e5-46e2-915a-91190ce042e7","name":"\u8b10\u6240-\u53f0\u4e2d\u5317\u5c6f\u5496\u5561,\u62ff\u9435,\u624b\u6c96,\u9676\u85dd\u63a8\u85a6\u4eba\u6c23\u5e97","city":"taichung","wifi":0,"seat":0,"quiet":0,"tasty":0,"cheap":0,"music":0,"url":"https:\/\/www.facebook.com\/MIISO113","address":"406 \u53f0\u4e2d\u5e02\u5317\u5c6f\u5340\u4e5d\u9f8d\u8857113\u865f","latitude":"24.16719560","longitude":"120.69654430","limited_time":"maybe","socket":"maybe","standing_desk":"no","mrt":"","open_time":""},{"id":"99d38377-8e05-4d3c-9860-b7705ccfe115","name":"MITAKA 3e cafe","city":"taichung","wifi":3,"seat":3,"quiet":1,"tasty":2,"cheap":2,"music":3,"url":"https:\/\/www.facebook.com\/MITAKA.3e.CAFE\/","address":"\u53f0\u4e2d\u5e02\u6c99\u9e7f\u5340\u6771\u6649\u6771\u8def731\u865f","latitude":"24.21926700","longitude":"120.58991700","limited_time":"","socket":"no","standing_desk":"yes","mrt":"","open_time":""},{"id":"99f1d2a4-5f44-44c2-8e6b-8c371414eddd","name":"\u6c99\u9e7f\u2022Kp cafe \u5496\u5561\u5c08\u9580\u5e97","city":"taichung","wifi":5,"seat":5,"quiet":4,"tasty":5,"cheap":4,"music":4,"url":"https:\/\/www.facebook.com\/Kpmagicbarista\/","address":"\u53f0\u4e2d\u5e02\u6c99\u9e7f\u5340\u8208\u5b89\u8def42-4\u865f","latitude":"24.23294330","longitude":"120.55730980","limited_time":"no","socket":"maybe","standing_desk":"no","mrt":"","open_time":"\u4e0b\u53481\uff5e\u665a\u4e0a6\u9ede"},{"id":"9a188ebf-cabc-4fd8-8666-690351a9e9eb","name":"\u9ed8\u5951\u5496\u5561","city":"taichung","wifi":5,"seat":4,"quiet":5,"tasty":5,"cheap":4,"music":4,"url":"https:\/\/www.facebook.com\/matchcafe\/","address":"\u53f0\u4e2d\u5e02\u897f\u5c6f\u5340\u53f0\u7063\u5927\u9053\u4e8c\u6bb5902\u865f","latitude":"24.16162500","longitude":"120.65204300","limited_time":"no","socket":"yes","standing_desk":"no","mrt":"","open_time":"10:00-19:00"},{"id":"9a70b6a0-8453-46e4-976d-2195fb3f095b","name":"Fleet Street","city":"taichung","wifi":5,"seat":4,"quiet":4.5,"tasty":5,"cheap":3.5,"music":5,"url":"https:\/\/www.facebook.com\/fleetstreet24","address":"\u53f0\u4e2d\u5e02\u4e2d\u5340\u6c11\u65cf\u8def24\u865f","latitude":"24.13769600","longitude":"120.68192500","limited_time":"no","socket":"maybe","standing_desk":"no","mrt":"","open_time":""},{"id":"9ad4acaa-474f-40bd-a362-94b6179ed9db","name":"Rice Caff'e \u7c73\u5496\u5561","city":"taichung","wifi":5,"seat":5,"quiet":5,"tasty":5,"cheap":4,"music":5,"url":"https:\/\/www.facebook.com\/ricecaffe\/","address":"\u53f0\u4e2d\u5e02\u897f\u5c6f\u5340\u7cbe\u660e\u4e8c\u885711\u865f","latitude":"24.15734200","longitude":"120.65581400","limited_time":"maybe","socket":"maybe","standing_desk":"yes","mrt":"","open_time":"\u82e5\u6709\u5916\u51fa\u8209\u8fa6\u6d3b\u52d5\u6216\u4e0a\u8ab2,\u7c89\u7d72\u5c08\u9801\u6703\u767c\u4f48\u81e8\u6642\u516c\u4f11"},{"id":"9b303394-6efa-4679-8bb1-8fe08211baac","name":"Smohouse \u601d\u9ed8\u597d\u6642","city":"taichung","wifi":5,"seat":5,"quiet":5,"tasty":3,"cheap":4.5,"music":4.5,"url":"http:\/\/www.smohouse.com\/","address":"\u53f0\u4e2d\u5e02\u5357\u5c6f\u5340\u5927\u58a9\u516d\u8857208\u865f","latitude":"24.14271910","longitude":"120.64941710","limited_time":"","socket":"","standing_desk":"no","mrt":"","open_time":"10:00 - 18:00"},{"id":"9ca332ed-7609-4fd2-9dee-f934191d971c","name":"\u5361\u5561\u90a3 CAFFAINA \u60e0\u4f86\u5e97","city":"taichung","wifi":3,"seat":3.5,"quiet":2,"tasty":4,"cheap":2.5,"music":4.5,"url":"http:\/\/www.caffaina.com\/","address":"\u53f0\u4e2d\u5e02\u897f\u5c6f\u5340\u60e0\u4e2d\u8def\u4e8c\u6bb545\u865f","latitude":"24.15569270","longitude":"120.64120790","limited_time":"no","socket":"yes","standing_desk":"yes","mrt":"","open_time":"09:00 - 24:00"},{"id":"9efb96ac-cbfc-4c3c-a56f-c895c7e6fc56","name":"13\u83d3\u5b50\u7530-13\u5496\u5561\u5427","city":"taichung","wifi":0,"seat":0,"quiet":0,"tasty":0,"cheap":0,"music":0,"url":"","address":"436\u53f0\u4e2d\u5e02\u6e05\u6c34\u5340\u5433\u539d\u91cc\u5433\u539d\u8def169","latitude":"24.26804790","longitude":"120.59836830","limited_time":"","socket":"","standing_desk":"","mrt":"","open_time":""},{"id":"a1eeac78-b671-43ad-b746-6c6fddbba0fc","name":"Forro Cafe","city":"taichung","wifi":5,"seat":4,"quiet":4,"tasty":5,"cheap":4,"music":4.5,"url":"http:\/\/www.forro.com.tw\/","address":"\u53f0\u4e2d\u5e02\u897f\u5340\u7cbe\u8aa0\u4e09\u885747\u865f","latitude":"24.15579960","longitude":"120.65827280","limited_time":"no","socket":"yes","standing_desk":"yes","mrt":"","open_time":"09:00 - 18:00"},{"id":"a2773023-370d-4d2b-8782-cd4b34e69037","name":"Double C.\u5854\u5e03\u897f\u751c\u9ede\u5de5\u4f5c\u5ba4","city":"taichung","wifi":0,"seat":3,"quiet":5,"tasty":5,"cheap":5,"music":4,"url":"","address":"\u53f0\u4e2d\u5e02\u68a7\u68f2\u5340\u897f\u5efa\u8def70\u865f","latitude":"24.25603930","longitude":"120.52880970","limited_time":"no","socket":"no","standing_desk":"no","mrt":"","open_time":""},{"id":"a2ce3c3a-7766-435d-9c20-e3f6b2005be9","name":"\u9ed1\u8c93\u6708\u4eae\u5496\u5561\u9928","city":"taichung","wifi":5,"seat":5,"quiet":5,"tasty":5,"cheap":5,"music":4,"url":"http:\/\/www.blackcatmoon.com.tw","address":"\u53f0\u4e2d\u5e02\u897f\u5c6f\u5340\u9ece\u660e\u8def\u4e8c\u6bb5860\u5df728\u865f","latitude":"24.16209200","longitude":"120.63410100","limited_time":"maybe","socket":"yes","standing_desk":"no","mrt":"","open_time":"\u5168\u9810\u7d04\u5236"},{"id":"a2dca6f2-30e0-44cd-b1d1-114bf86a9b1f","name":"\u6c90cafe","city":"taichung","wifi":0,"seat":0,"quiet":0,"tasty":0,"cheap":0,"music":0,"url":"","address":"402\u53f0\u4e2d\u5e02\u5357\u5340\u4e94\u6b0a\u5357\u8def380\u5df719\u865f","latitude":"24.12044790","longitude":"120.67127080","limited_time":"","socket":"","standing_desk":"","mrt":"","open_time":""},{"id":"a2ebdbc8-4359-4eef-84ae-adabfe0a632b","name":"\u8993\u975c\u62fe\u5149","city":"taichung","wifi":3.5,"seat":5,"quiet":4.5,"tasty":5,"cheap":3.5,"music":5,"url":"https:\/\/www.facebook.com\/stilllight910\/?fref=ts","address":"\u53f0\u4e2d\u5e02\u897f\u5340\u7cbe\u8aa0\u4e5d\u8857\u5341\u865f\u4e00\u6a13","latitude":"24.15388010","longitude":"120.65584160","limited_time":"","socket":"maybe","standing_desk":"","mrt":"","open_time":""},{"id":"a3232e7f-a9e3-49c0-b196-77062203e83c","name":"428cafe","city":"taichung","wifi":4,"seat":4,"quiet":5,"tasty":5,"cheap":5,"music":4,"url":"https:\/\/www.facebook.com\/428Coffee\/","address":"\u53f0\u4e2d\u5e02\u897f\u5340\u535a\u9928\u8def103\u865f","latitude":"24.15615210","longitude":"120.66553120","limited_time":"maybe","socket":"maybe","standing_desk":"yes","mrt":"","open_time":"08:00-18:00"},{"id":"a4948793-e2d8-4bbf-a2e1-84915b8f3594","name":"\u7aa9\u8336\u5c45","city":"taichung","wifi":4,"seat":5,"quiet":5,"tasty":5,"cheap":3,"music":3,"url":"https:\/\/wochaju.com","address":"\u53f0\u4e2d\u5e02\u897f\u5340\u83ef\u7f8e\u897f\u8857\u4e00\u6bb530\u865f","latitude":"24.15229000","longitude":"120.65824600","limited_time":"no","socket":"maybe","standing_desk":"no","mrt":"","open_time":"09:30 - 18:00"},{"id":"a5402917-2237-4091-9127-b79405a8483e","name":"OnOnNature","city":"taichung","wifi":0,"seat":5,"quiet":5,"tasty":5,"cheap":3,"music":4,"url":"https:\/\/www.facebook.com\/ononnature\/","address":"\u53f0\u4e2d\u5e02\u77f3\u5ca1\u5340\u77f3\u57ce\u885727\u865f","latitude":"24.27792470","longitude":"120.77557660","limited_time":"maybe","socket":"","standing_desk":"","mrt":"","open_time":""},{"id":"a6008a35-1add-46e1-b5e7-4b6a265eb4ba","name":"\u6c92\u6709\u540d\u5b57\u7684\u5496\u5561\u9928","city":"taichung","wifi":2,"seat":4,"quiet":4,"tasty":5,"cheap":5,"music":5,"url":"","address":"\u53f0\u4e2d\u5e02\u897f\u5340\u516c\u76ca\u8def174\u5df7212\u865f","latitude":"24.15436300","longitude":"120.65856400","limited_time":"no","socket":"no","standing_desk":"no","mrt":"","open_time":""},{"id":"a6bc9e65-49a3-47b2-bd0b-a0be78bc82fc","name":"\u5f8c\u9a5b\u518a\u5e97","city":"taichung","wifi":5,"seat":5,"quiet":5,"tasty":5,"cheap":4,"music":5,"url":"https:\/\/www.facebook.com\/statio.verso\/","address":"\u53f0\u4e2d\u5e02\u6771\u5340\u5927\u516c\u885719\u865f1F","latitude":"24.13447400","longitude":"120.68539650","limited_time":"no","socket":"yes","standing_desk":"no","mrt":"","open_time":"12:00-21:00\uff08\u9031\u4e00\u516c\u4f11\uff09"},{"id":"a8950fb6-17d4-443f-b757-b5f8a779a8cf","name":"\u4e8c\u9918\u8349\u5802\u5496\u5561\u5de5\u4f5c\u5ba4","city":"taichung","wifi":0,"seat":0,"quiet":0,"tasty":0,"cheap":0,"music":0,"url":"https:\/\/www.facebook.com\/freevibecoffee\/","address":"\u53f0\u4e2d\u5e02\u6771\u52e2\u5340\u65b0\u76db\u516d\u8857113\u865f","latitude":"24.24472710","longitude":"120.83010610","limited_time":"no","socket":"maybe","standing_desk":"no","mrt":"","open_time":"\u53ef\u81f3\u7c89\u7d72\u5c08\u9801\u67e5\u770b\u8a73\u60c5"},{"id":"a956a1bd-b92c-48c9-acb6-4439b1986704","name":"\u798f\u4eba\u5496\u5561","city":"taichung","wifi":0,"seat":0,"quiet":0,"tasty":0,"cheap":0,"music":0,"url":"https:\/\/www.facebook.com\/fujentea","address":"\u53f0\u4e2d\u5e02\u5317\u5340\u6771\u5149\u8def398-1\u865f1\u6a13","latitude":"24.15846200","longitude":"120.69968100","limited_time":"no","socket":"maybe","standing_desk":"no","mrt":"","open_time":"\u8981\u5148\u9810\u7d04"},{"id":"a9690c23-064a-4ad3-95dc-795cb5250d91","name":"\u7f8a\u6bdb\u99ac\u8def\u5496\u5561-\u52e4\u7f8e\u5e97","city":"taichung","wifi":5,"seat":5,"quiet":5,"tasty":5,"cheap":5,"music":5,"url":"https:\/\/b-m.facebook.com\/woolroad2\/","address":"\u53f0\u4e2d\u5e02\u897f\u5340\u6c11\u6b0a\u8def229\u5df721\u865f","latitude":"24.14895140","longitude":"120.66772580","limited_time":"maybe","socket":"maybe","standing_desk":"yes","mrt":"","open_time":""},{"id":"aaa27346-25d7-47f6-a27b-e4073b25b5eb","name":"REC COFFEE Taiwan","city":"taichung","wifi":0,"seat":0,"quiet":0,"tasty":0,"cheap":0,"music":0,"url":"","address":"\u53f0\u4e2d\u5e02\u897f\u5c6f\u5340\u60e0\u4e2d\u8def\u4e00\u6bb588\u865f26\u6a13","latitude":"24.16260800","longitude":"120.64484690","limited_time":"","socket":"","standing_desk":"","mrt":"","open_time":""},{"id":"ab5ac2b2-1b7a-499f-b651-95366b256889","name":"Caf\u00e9 Yestoday","city":"taichung","wifi":0,"seat":5,"quiet":4,"tasty":4,"cheap":4,"music":5,"url":"","address":"\u53f0\u4e2d\u5e02\u9f8d\u4e95\u5340\u85dd\u8853\u885797\u865f","latitude":"24.18812160","longitude":"120.59211930","limited_time":"no","socket":"no","standing_desk":"yes","mrt":"","open_time":""},{"id":"ab8a4274-74e9-49c9-a9b2-edab02e65a05","name":"\u675c\u5b85\u5496\u5561","city":"taichung","wifi":5,"seat":5,"quiet":5,"tasty":5,"cheap":4,"music":4,"url":"https:\/\/www.facebook.com\/dou.zhai.homemade.roasted.cafe","address":"\u53f0\u4e2d\u5e02\u5357\u5340\u4e94\u6b0a\u5357\u8def468\u865f","latitude":"24.11832060","longitude":"120.67019780","limited_time":"no","socket":"yes","standing_desk":"no","mrt":"","open_time":""},{"id":"ab926a8e-cde5-4fbb-8d0b-f704494fb99e","name":"ABG Coffee","city":"taichung","wifi":0,"seat":0,"quiet":0,"tasty":0,"cheap":0,"music":0,"url":"https:\/\/www.facebook.com\/abg.coffee","address":"\u53f0\u4e2d\u5e02\u5357\u5c6f\u5340\u516c\u76ca\u8def\u4e8c\u6bb5705\u865f","latitude":"24.15058540","longitude":"120.63156890","limited_time":"no","socket":"no","standing_desk":"no","mrt":"","open_time":""},{"id":"ac37adbc-5b55-441f-947a-92400dab260b","name":"\u718a\u559d\u5496\u5561","city":"taichung","wifi":5,"seat":5,"quiet":4,"tasty":5,"cheap":4,"music":5,"url":"https:\/\/www.facebook.com\/besffee\/","address":"\u53f0\u4e2d\u5e02\u5317\u5340\u592a\u539f\u8def\u4e8c\u6bb54\u865f","latitude":"24.16480100","longitude":"120.67430200","limited_time":"","socket":"yes","standing_desk":"","mrt":"","open_time":""},{"id":"ac781fdf-0743-446b-b5af-04fbd1e89146","name":"\u6797\u9752\u971e\u8173\u8e0f\u8eca\u5496\u5561","city":"taichung","wifi":0,"seat":5,"quiet":5,"tasty":5,"cheap":5,"music":4,"url":"https:\/\/m.facebook.com\/\u6797\u9752\u971e\u8173\u8e0f\u8eca\u5496\u5561-174147725957705\/?ref=page_internal&mt_nav=0","address":"\u53f0\u4e2d\u5e02\u897f\u5c6f\u5340\u7cbe\u660e\u4e8c\u885749\u865f","latitude":"24.15634330","longitude":"120.65513710","limited_time":"maybe","socket":"no","standing_desk":"no","mrt":"","open_time":""},{"id":"acb7e004-e7a5-477c-872c-e6e47e2227f9","name":"\u62fe\u5149\u673a","city":"taichung","wifi":5,"seat":5,"quiet":5,"tasty":5,"cheap":5,"music":5,"url":"http:\/\/www.facebook.com\/timeless01","address":"\u53f0\u4e2d\u5e02\u897f\u5340\u81ea\u6cbb\u885736\u865f","latitude":"24.13894420","longitude":"120.67107350","limited_time":"","socket":"yes","standing_desk":"no","mrt":"","open_time":"10:00 - 18:00\uff0c\u6bcf\u661f\u671f\u4e8c\u516c\u4f11"},{"id":"ad7370fc-0aae-45ac-8e3d-024b6c0afe64","name":"Cat's House","city":"taichung","wifi":5,"seat":4.5,"quiet":4,"tasty":5,"cheap":4.5,"music":5,"url":"https:\/\/www.facebook.com\/Cats-House-491100747662919\/","address":"\u53f0\u4e2d\u5e02\u5357\u5c6f\u5340\u6587\u5fc3\u5357\u4e8c\u8def170\u5df710\u865f","latitude":"24.13636000","longitude":"120.64740260","limited_time":"maybe","socket":"no","standing_desk":"no","mrt":"","open_time":"13:00-22:00"},{"id":"ade9440e-6665-441e-a63c-7f9b0c75afe3","name":"\u8086\u96f6\u9678","city":"taichung","wifi":5,"seat":5,"quiet":5,"tasty":5,"cheap":3,"music":4,"url":"https:\/\/www.facebook.com\/pages\/%E8%82%86%E9%9B%B6%E9%99%B8\/1499699327016339","address":"406\u53f0\u4e2d\u5e02\u5317\u5c6f\u5340\u6771\u5c71\u8def\u4e00\u6bb5406\u865f","latitude":"24.17716340","longitude":"120.73495340","limited_time":"no","socket":"maybe","standing_desk":"yes","mrt":"","open_time":"\u4e8c\uff5e\u65e5 9-18"},{"id":"aed14458-0add-40cd-8d8a-df1ced26ca79","name":"KroX Taichung Coffee Roaster","city":"taichung","wifi":0,"seat":0,"quiet":0,"tasty":0,"cheap":0,"music":0,"url":"https:\/\/www.instagram.com\/kroxcoffee2020\/?igshid=1g3gg8kbbtlnz","address":"406\u53f0\u4e2d\u5e02\u5317\u5c6f\u5340\u6885\u5ddd\u6771\u8def\u4e94\u6bb56\u865f","latitude":"24.17657100","longitude":"120.68166200","limited_time":"maybe","socket":"maybe","standing_desk":"no","mrt":"","open_time":""},{"id":"afaa3cf5-e1b9-499e-be5e-2de5dfdec1d4","name":"\u7d30\u6c34\u7119\u714e\u6240","city":"taichung","wifi":0,"seat":0,"quiet":0,"tasty":0,"cheap":0,"music":0,"url":"","address":"403\u53f0\u4e2d\u5e02\u897f\u5340\u4e94\u6b0a\u897f\u516d\u885782\u5df721\u865f","latitude":"24.13730900","longitude":"120.65814990","limited_time":"","socket":"","standing_desk":"","mrt":"","open_time":""},{"id":"b16b3a80-0752-46dc-8d2a-517e98c9f614","name":"ROKARO coffee","city":"taichung","wifi":5,"seat":5,"quiet":5,"tasty":4,"cheap":5,"music":4,"url":"https:\/\/www.facebook.com\/rokaro.coffee\/","address":"\u53f0\u4e2d\u5e02\u7f8e\u6751\u8def\u4e00\u6bb5576\u5df721\u865f","latitude":"24.13841990","longitude":"120.66033630","limited_time":"no","socket":"maybe","standing_desk":"yes","mrt":"","open_time":""},{"id":"b23c8715-6d23-47d7-b7bc-468585709ee9","name":"REN CAFE","city":"taichung","wifi":1,"seat":4,"quiet":3,"tasty":3,"cheap":2.5,"music":2,"url":"https:\/\/www.facebook.com\/rencafe1086ruelle\/","address":"\u53f0\u4e2d\u5e02\u5357\u5c6f\u5340\u9ece\u660e\u8def\u4e00\u6bb51086\u5df741\u865f","latitude":"24.13988590","longitude":"120.63932940","limited_time":"maybe","socket":"maybe","standing_desk":"no","mrt":"","open_time":"\u5e97\u4f11\u7c89\u7d72\u5c08\u9801\u9032\u884c\u516c\u544a"},{"id":"b361f2cb-12df-4b0e-a351-6a6b97ec8441","name":"\u5b54\u96c0\u5496\u5561 Peacocks Coffee","city":"taichung","wifi":0,"seat":4,"quiet":3,"tasty":5,"cheap":5,"music":5,"url":"https:\/\/www.facebook.com\/peacocks.coffee.taichung","address":"400\u53f0\u4e2d\u5e02\u4e2d\u5340\u5927\u8aa0\u88575\u865f","latitude":"24.14441240","longitude":"120.67778070","limited_time":"","socket":"","standing_desk":"","mrt":"","open_time":""},{"id":"b3ae03ff-b6e5-4271-9f10-55dacb0f509e","name":"MT49\u8292\u679c\u6a3949\u865f\u5496\u5561\u5e97","city":"taichung","wifi":5,"seat":4,"quiet":3,"tasty":5,"cheap":3,"music":5,"url":"https:\/\/www.facebook.com\/MT49cafe","address":"\u53f0\u4e2d\u5e02\u5317\u5c6f\u5340\u540e\u5e84\u4e03\u885749\u865f","latitude":"24.18980340","longitude":"120.66636860","limited_time":"no","socket":"yes","standing_desk":"yes","mrt":"","open_time":"08:00\uff5e22:00"},{"id":"b4abb906-2c6a-4620-89e3-05f4adeaa7c8","name":"Reborn Cafe \u91cd\u751f\u81ea\u5bb6\u70d8\u7119\u5496\u5561","city":"taichung","wifi":5,"seat":5,"quiet":5,"tasty":5,"cheap":5,"music":5,"url":"https:\/\/www.facebook.com\/profile.php?id=100054404805206","address":"\u53f0\u4e2d\u5e02\u897f\u5340\u6c11\u6b0a\u8def302-1\u865f","latitude":"24.14743400","longitude":"120.66986600","limited_time":"no","socket":"yes","standing_desk":"yes","mrt":"","open_time":""},{"id":"b4e5925a-88a7-4699-8a24-450f1d03abc9","name":"\u6c83\u5496\u5561","city":"taichung","wifi":5,"seat":5,"quiet":4,"tasty":5,"cheap":5,"music":5,"url":"www.facebook.com\/worldrich.coffee\/","address":"\u53f0\u4e2d\u5e02\u897f\u5c6f\u5340\u897f\u5c6f\u8def\u4e8c\u6bb510-8\u865f","latitude":"24.16384350","longitude":"120.66224350","limited_time":"no","socket":"maybe","standing_desk":"yes","mrt":"","open_time":""},{"id":"b59124b6-6b8d-4d64-9ded-c76abe18572f","name":"\u9244\u5de5\u6240\u5496\u5561 Metal Q CAF\u00c9\uff08\u820a\u5de5\u5ee0\/\u5496\u5561\u98f2\u54c1\uff09","city":"taichung","wifi":0,"seat":0,"quiet":0,"tasty":0,"cheap":0,"music":0,"url":"","address":"411\u53f0\u4e2d\u5e02\u592a\u5e73\u5340\u4e2d\u5c71\u8def\u4e00\u6bb5322\u5df746\u4e4b1\u865f","latitude":"24.14342620","longitude":"120.73589310","limited_time":"","socket":"","standing_desk":"","mrt":"","open_time":""},{"id":"b59b59e5-d1ae-4db1-9b25-bfe8bfba4d18","name":"Caf\u00e9 sora (Coffee Industry) ","city":"taichung","wifi":5,"seat":4.5,"quiet":4.5,"tasty":4,"cheap":4,"music":4.5,"url":"https:\/\/www.facebook.com\/Industry.Sora\/","address":"\u53f0\u4e2d\u5e02\u897f\u5340\u6c11\u751f\u8def179\u865f","latitude":"24.14352800","longitude":"120.67005970","limited_time":"maybe","socket":"yes","standing_desk":"no","mrt":"","open_time":"\u7279\u6b8a\u5e97\u4f11\u53ef\u770b\u7c89\u5c08"},{"id":"b5d40ec2-489a-4cbb-8c35-a45b1a1c32c6","name":"\u5929\u5473\u5496\u5561\u9053 tenway cafe","city":"taichung","wifi":5,"seat":5,"quiet":5,"tasty":5,"cheap":5,"music":5,"url":"https:\/\/www.facebook.com\/tenwaycafe","address":"\u53f0\u4e2d\u5e02\u897f\u5340\u5065\u884c\u8def1020\u865f","latitude":"24.15709480","longitude":"120.66329180","limited_time":"no","socket":"yes","standing_desk":"no","mrt":"","open_time":"Thu-Fri 13:00-18:00 Sat-Sun 14:00-21:00"},{"id":"b704247f-4209-4647-abdb-2eb8e47bb421","name":"\u65b9\u821f\u5496\u5561\u5eda\u623f","city":"taichung","wifi":0,"seat":0,"quiet":0,"tasty":0,"cheap":0,"music":0,"url":"https:\/\/www.facebook.com\/tadacafe","address":"\u53f0\u4e2d\u5e02\u5357\u5340\u5fa9\u8208\u8def\u4e09\u6bb5362\u865f","latitude":"24.13334340","longitude":"120.68074400","limited_time":"","socket":"","standing_desk":"","mrt":"","open_time":"\u6bcf\u9031\u4e00\u516c\u4f11 \u9031\u4e8c\u81f3\u9031\u65e5\u71df\u696d\u6642\u9593* AM: 10:00~ PM: 19:00*(PS:\u6bcf\u65e5\u6700\u5f8c\u51fa\u9910\u6642\u9593\u70ba*PM:18:00*)"},{"id":"b830afa7-4142-4e24-9b9b-6297adf16af8","name":"\u827e\u8587\u5152\u5496\u5561\u5e97","city":"taichung","wifi":5,"seat":4,"quiet":5,"tasty":5,"cheap":5,"music":3,"url":"","address":"\u53f0\u4e2d\u5e02\u897f\u5340\u5927\u5fe0\u5357\u885789\u865f","latitude":"24.13822450","longitude":"120.65530440","limited_time":"","socket":"","standing_desk":"","mrt":"","open_time":""},{"id":"ba24a311-5a13-4d6f-9288-0be7bc3e1eed","name":"\u5947\u690f\u5496\u5561","city":"taichung","wifi":5,"seat":5,"quiet":5,"tasty":5,"cheap":4,"music":4,"url":"https:\/\/www.facebook.com\/chillight.coffee\/","address":"\u53f0\u4e2d\u5e02\u6c99\u9e7f\u5340\u5927\u540c\u8857121\u865f","latitude":"24.23962750","longitude":"120.55920600","limited_time":"no","socket":"yes","standing_desk":"yes","mrt":"","open_time":""},{"id":"bb4ac167-cbe8-4bf3-b659-e03ee9c5ec9b","name":"\u601d\u7dad \u8f15 \u751c\u98df","city":"taichung","wifi":5,"seat":4,"quiet":4,"tasty":5,"cheap":5,"music":5,"url":"https:\/\/www.facebook.com\/berylsweetcafe\/","address":"\u9f8d\u4e95\u5340\u65b0\u8208\u8def27\u5df78\u865f2\u6a13","latitude":"24.18029600","longitude":"120.58973200","limited_time":"no","socket":"yes","standing_desk":"no","mrt":"","open_time":"14:00~22:00"},{"id":"bd3abcc2-5145-4625-b47b-1df3db1a0a40","name":"Caf\u00e9 Mambo \u6f2b\u6ce2","city":"taichung","wifi":4.5,"seat":5,"quiet":4.5,"tasty":4.5,"cheap":4.5,"music":5,"url":"https:\/\/www.facebook.com\/cafemambo.tw\/","address":"\u53f0\u4e2d\u5e02\u5317\u5340\u4e94\u6b0a\u8def594\u865f","latitude":"24.15411240","longitude":"120.68521750","limited_time":"no","socket":"yes","standing_desk":"yes","mrt":"","open_time":"15:00~01:00"},{"id":"be4738f7-939d-4825-b27e-3e481bbc8211","name":"\u65b0\u92b3\u5496\u5561-\u6c11\u65cf\u5e97","city":"taichung","wifi":2,"seat":4,"quiet":4,"tasty":3,"cheap":3,"music":3,"url":"https:\/\/m.facebook.com\/sensorycafeminzu\/?tsid=0.25818453974662403","address":"\u53f0\u4e2d\u5e02\u4e94\u6b0a\u8def58\u865f","latitude":"24.14613320","longitude":"120.67226190","limited_time":"no","socket":"no","standing_desk":"no","mrt":"","open_time":""},{"id":"be6ba8a8-ab01-4a93-8d74-c7e269cfcb6d","name":"\u5149\u660e\u5ba2\u68e7 idea Lab. CAF\u00c9 \u5341\u6a13\u5496\u5561\u9928","city":"taichung","wifi":5,"seat":5,"quiet":5,"tasty":4,"cheap":4,"music":5,"url":"http:\/\/idealab.com.tw","address":"\u53f0\u4e2d\u5e02\u897f\u5c6f\u5340\u53f0\u7063\u5927\u9053\u4e09\u6bb5540\u865f10\u6a13\u4e4b5","latitude":"24.16862130","longitude":"120.64055100","limited_time":"","socket":"yes","standing_desk":"","mrt":"","open_time":"9:00\uff5e18:00"},{"id":"beeac6cb-3e92-4177-826d-d377abf3bdb9","name":"\u53ef\u56e0\u5496\u5561Cafeing","city":"taichung","wifi":5,"seat":4,"quiet":5,"tasty":5,"cheap":5,"music":5,"url":"","address":"\u53f0\u4e2d\u5e02\u5357\u5c6f\u5340\u5927\u58a911\u8857447\u865f","latitude":"24.14862060","longitude":"120.64010710","limited_time":"yes","socket":"no","standing_desk":"no","mrt":"","open_time":""},{"id":"bf01c38d-0fa7-4cbc-a2b4-5f9a443f0e8e","name":"\u68ee\u6797\u5c0f\u5f91-\u934b\u7269\u3002\u65e9\u5348\u9910\u3002\u7fa9\u5f0f\u6599\u7406\u3002\u4e0b\u5348\u8336","city":"taichung","wifi":5,"seat":3.5,"quiet":3.5,"tasty":4,"cheap":4,"music":3.5,"url":"https:\/\/www.facebook.com\/fp22982238\/?ref=bookmarks","address":"\u53f0\u4e2d\u5e02\u5317\u5c6f\u5340\u6587\u5fc3\u8def\u56db\u6bb5131\u865f","latitude":"24.17414400","longitude":"120.67494800","limited_time":"maybe","socket":"maybe","standing_desk":"no","mrt":"","open_time":""},{"id":"bfa6a95c-5de6-4aa7-a25f-aa5b4d4c3c68","name":"\u51fa\u8ecc\u5496","city":"taichung","wifi":5,"seat":4.5,"quiet":5,"tasty":5,"cheap":5,"music":5,"url":"https:\/\/derailcoffee.waca.shop","address":"\u53f0\u4e2d\u5e02\u6c99\u9e7f\u5340\u5149\u83ef\u8def372\u5df741\u865f","latitude":"24.24236380","longitude":"120.56630100","limited_time":"no","socket":"yes","standing_desk":"no","mrt":"","open_time":""},{"id":"c04a44e4-4406-4268-aa80-f56a33d6b852","name":"\u9806\u5496\u5561","city":"taichung","wifi":5,"seat":5,"quiet":5,"tasty":5,"cheap":4,"music":4,"url":"https:\/\/www.facebook.com\/sooncoffee\/","address":"\u53f0\u4e2d\u5e02\u4e2d\u5340\u5e02\u5e9c\u8def107\u5df71-2\u865f","latitude":"24.14137400","longitude":"120.68157600","limited_time":"no","socket":"yes","standing_desk":"no","mrt":"","open_time":"12:00-19:00 (\u9031\u4e8c\u4f11)"},{"id":"c0b5cfda-5c9f-43bc-8c95-e8253ac4c5dc","name":"\u6085\u766e\u5496\u5561","city":"taichung","wifi":0,"seat":0,"quiet":0,"tasty":0,"cheap":0,"music":0,"url":"https:\/\/m.facebook.com\/andorfincoffee\/","address":"\u53f0\u4e2d\u5e02\u5357\u5c6f\u5340\u5411\u5fc3\u8def83\u865f","latitude":"24.14046750","longitude":"120.64504050","limited_time":"no","socket":"yes","standing_desk":"no","mrt":"","open_time":"\u9031\u4e09\u56fa\u5b9a\u516c\u4f11\uff0c\u6bcf\u6708\u7b2c\u4e8c\u8207\u7b2c\u56db\u500b\u9031\u4e8c\u516c\u4f11"},{"id":"c1ebf0c0-d572-4f3e-95a7-9aecdab7a3f1","name":"\u68cb\u6735keydoor\u5496\u5561","city":"taichung","wifi":4,"seat":4,"quiet":4,"tasty":4,"cheap":3,"music":4,"url":"https:\/\/www.facebook.com\/keydoor108\/","address":"\u53f0\u4e2d\u5e02\u5357\u5340\u5357\u548c\u8def108\u865f","latitude":"24.11785000","longitude":"120.66869300","limited_time":"","socket":"maybe","standing_desk":"","mrt":"","open_time":""},{"id":"c2407de6-dc95-4bf5-8cb2-0fac1a7bc6cd","name":"Kozy Cafe","city":"taichung","wifi":4,"seat":4,"quiet":4,"tasty":5,"cheap":3,"music":4,"url":"https:\/\/www.facebook.com\/kozycafe\/","address":"\u53f0\u4e2d\u5e02\u5357\u5c6f\u5340\u5927\u58a9\u5341\u8857230\u865f","latitude":"24.14786140","longitude":"120.64845900","limited_time":"no","socket":"maybe","standing_desk":"no","mrt":"","open_time":""},{"id":"c260f141-e610-49f2-9687-1e245288d227","name":"HAUSINC CAFE","city":"taichung","wifi":5,"seat":4,"quiet":4,"tasty":5,"cheap":4,"music":5,"url":"https:\/\/www.facebook.com\/HAUSINC-CAFE-1441818039400868\/","address":"\u53f0\u4e2d\u5e02\u5317\u5340\u5fe0\u592a\u897f\u8def 39 \u865f","latitude":"24.16188770","longitude":"120.66775040","limited_time":"no","socket":"maybe","standing_desk":"yes","mrt":"","open_time":"\u9031\u4e8c\u5230\u9031\u516d09:00-18:00\u3001\u9031\u65e511:00-18:00\u3001\u9031\u4e00\u516c\u4f11"},{"id":"c3bd0cd0-7f14-41e3-b2ad-cbbe24f18649","name":"\u5c0f\u8449\u8309\u8389 MOLY CAFE","city":"taichung","wifi":0,"seat":5,"quiet":5,"tasty":5,"cheap":5,"music":5,"url":"","address":"\u53f0\u4e2d\u5e02\u4e2d\u5340\u4e2d\u83ef\u8def\u4e00\u6bb560\u5df76\u865f","latitude":"24.14346990","longitude":"120.67577730","limited_time":"no","socket":"no","standing_desk":"no","mrt":"","open_time":""},{"id":"c42b0d0f-ad3c-404a-8f0c-b61c9f794f72","name":"Cheers Cafe\u9a0e\u58eb\u5496\u5561","city":"taichung","wifi":5,"seat":4,"quiet":4,"tasty":5,"cheap":5,"music":5,"url":"https:\/\/www.facebook.com\/CheersCafeTaiwan\/","address":"\u53f0\u4e2d\u5e02\u5357\u5c6f\u5340\u74b0\u4e2d\u8def\u56db\u6bb5303-1\u865f","latitude":"24.13931780","longitude":"120.62312180","limited_time":"no","socket":"maybe","standing_desk":"yes","mrt":"","open_time":""},{"id":"c54b439b-7dda-4449-a487-5448d2f24355","name":"Emma's Cafe","city":"taichung","wifi":5,"seat":4.5,"quiet":3.5,"tasty":4.5,"cheap":4,"music":5,"url":"https:\/\/www.facebook.com\/EMMASCAFE196\/","address":"\u53f0\u4e2d\u5e02\u5317\u5340\u5b78\u58eb\u8def196\u5df79\u865f","latitude":"24.16005200","longitude":"120.68154500","limited_time":"","socket":"","standing_desk":"","mrt":"","open_time":"\u6bcf\u65e5 09:00-23:00"},{"id":"c558a13f-b63d-40e6-9e70-b3660b4bc09d","name":"Caffina \u5361\u5561\u90a3\u5927\u58a9\u5e97","city":"taichung","wifi":4.5,"seat":4,"quiet":2,"tasty":4,"cheap":3,"music":3,"url":"http:\/\/www.caffaina.com\/","address":"\u53f0\u4e2d\u5357\u5c6f\u5340\u5927\u58a9\u8def573\u865f","latitude":"24.15017310","longitude":"120.64968160","limited_time":"no","socket":"yes","standing_desk":"yes","mrt":"","open_time":"\u65e9\u4e0a9\u9ede\u5230\u51cc\u666812\u9ede"},{"id":"c5b2d7ad-02bd-4695-a819-d8546cd1b46b","name":"\u5982\u5e38\u3002\u6240\u5728","city":"taichung","wifi":0,"seat":0,"quiet":0,"tasty":0,"cheap":0,"music":0,"url":"https:\/\/www.facebook.com\/%E5%A6%82%E5%B8%B8%E6%89%80%E5%9C%A8-101640638224036","address":"\u81fa\u4e2d\u5e02\u5357\u5340\u5fa9\u8208\u8def\u4e8c\u6bb5208\u865f","latitude":"24.12740660","longitude":"120.66696230","limited_time":"maybe","socket":"no","standing_desk":"no","mrt":"","open_time":"2021\/03\/23 \u958b\u5e55 \u8acb\u770b\u81c9\u66f8\u516c\u544a"},{"id":"c7533853-ef74-48cd-8f9f-917384293377","name":"Retro Mojo Coffee","city":"taichung","wifi":5,"seat":4,"quiet":4,"tasty":5,"cheap":4,"music":5,"url":"https:\/\/www.facebook.com\/RetroMojocoffee\/","address":"\u53f0\u4e2d\u5e02\u897f\u5340\u4e94\u6b0a\u897f\u8def\u4e00\u6bb5116\u865f","latitude":"24.14025480","longitude":"120.66095790","limited_time":"maybe","socket":"maybe","standing_desk":"yes","mrt":"","open_time":"08:30-20:00                           \u9031\u516d: 09:00-20:00"},{"id":"c759a6c3-9497-40d2-a37a-bec48045df79","name":"Coffury Studio No.71","city":"taichung","wifi":0,"seat":0,"quiet":0,"tasty":0,"cheap":0,"music":0,"url":"https:\/\/www.facebook.com\/CoffuryStudioNo.71\/?modal=admin_todo_tour","address":"404 \u53f0\u4e2d\u5e02\u5317\u5340\u5fe0\u592a\u897f\u8def71\u865f","latitude":"24.16455900","longitude":"120.66977100","limited_time":"maybe","socket":"maybe","standing_desk":"no","mrt":"","open_time":""},{"id":"c7f7f51e-c9c6-4302-9a86-8d765f7cab62","name":"\u63da\u7709\u571f\u5668 ","city":"taichung","wifi":0,"seat":0,"quiet":0,"tasty":0,"cheap":0,"music":0,"url":"","address":"436\u53f0\u4e2d\u5e02\u6e05\u6c34\u5340\u5927\u8857\u8def106\u865f","latitude":"24.26818300","longitude":"120.57854900","limited_time":"","socket":"","standing_desk":"","mrt":"","open_time":""},{"id":"c83da8e8-2d69-4a6a-b5c3-60a7fb8a6182","name":"Frinicafe","city":"taichung","wifi":5,"seat":5,"quiet":5,"tasty":5,"cheap":5,"music":5,"url":"https:\/\/www.facebook.com\/Frini-Caf%C3%A9-1761532737499970\/?ref=bookmarks","address":"\u53f0\u4e2d\u5e02\u897f\u5c6f\u5340\u53f0\u7063\u5927\u9053\u56db\u6bb5776\u865f","latitude":"24.18080300","longitude":"120.62067800","limited_time":"no","socket":"yes","standing_desk":"yes","mrt":"","open_time":"\u661f\u671f\u4e09\u516c\u4f11"},{"id":"c8e9a7c1-d62a-4b0e-b1bc-2383870cc311","name":"Cuiqu Coffee\u594e\u514b\u5496\u5561\u53f0\u4e2d\u516c\u76ca\u5e97","city":"taichung","wifi":5,"seat":5,"quiet":3,"tasty":5,"cheap":4,"music":5,"url":"http:\/\/www.cuiqu-coffee.com\/","address":"\u53f0\u4e2d\u5e02\u5357\u5c6f\u5340\u516c\u76ca\u8def\u4e8c\u6bb5532\u865f","latitude":"24.15130420","longitude":"120.63456350","limited_time":"","socket":"maybe","standing_desk":"","mrt":"","open_time":""},{"id":"cb52e032-7d2f-4e04-9c59-3b8b5cfbc8e3","name":"YABANE COFFEE \u77e2\u7fbd\u73c8\u7432\u5e97","city":"taichung","wifi":5,"seat":5,"quiet":5,"tasty":5,"cheap":4,"music":5,"url":"https:\/\/www.yabanecoffee.com\/","address":"\u53f0\u4e2d\u5e02\u897f\u5340\u7cbe\u8aa0\u4e8c\u5341\u4e09\u885727\u865f","latitude":"24.14623380","longitude":"120.65601180","limited_time":"maybe","socket":"maybe","standing_desk":"yes","mrt":"","open_time":""},{"id":"cc37f180-faed-4edb-82a6-674d178f4e4a","name":"\u5e03\u5609\u7cd6\u7cbe\u54c1\u5496\u5561\u5de5\u4f5c\u5ba4","city":"taichung","wifi":4,"seat":5,"quiet":5,"tasty":5,"cheap":5,"music":5,"url":"www.bujustory.com","address":"\u53f0\u4e2d\u5e02\u897f\u5340\u6587\u5316\u8857154\u865f","latitude":"24.15238410","longitude":"120.67189030","limited_time":"maybe","socket":"maybe","standing_desk":"yes","mrt":"","open_time":""},{"id":"cc47300f-5224-49cc-88ed-d3d12bd07ff2","name":"BlackPages Cafe \u53f0\u4e2d\u4e2d\u53cb\u5e97","city":"taichung","wifi":3.5,"seat":4,"quiet":4.5,"tasty":5,"cheap":3,"music":5,"url":"","address":"\u53f0\u4e2d\u5e02\u5317\u5340\u4e09\u6c11\u8def\u4e09\u6bb5161\u865fC\u68df11F","latitude":"24.15207290","longitude":"120.68475400","limited_time":"","socket":"","standing_desk":"no","mrt":"","open_time":"11:00 - 22:00"},{"id":"ccda1734-83d4-4b20-a093-44ea5ed1a75a","name":"\u6eab\u5eec\u5496\u5561Ururu Coffee","city":"taichung","wifi":0,"seat":0,"quiet":0,"tasty":0,"cheap":0,"music":0,"url":"https:\/\/ururucoffee.com\/","address":"403 \u53f0\u4e2d\u5e02\u897f\u5340\u5927\u58a9\u5341\u4e8c\u885747\u865f1\u6a13","latitude":"24.14987890","longitude":"120.65351860","limited_time":"maybe","socket":"no","standing_desk":"no","mrt":"","open_time":""},{"id":"cd0d597a-1589-4045-8569-382dc73ebb5e","name":"Wednesday's Flavor","city":"taichung","wifi":5,"seat":5,"quiet":5,"tasty":5,"cheap":4,"music":5,"url":"","address":"\u53f0\u4e2d\u5e02\u897f\u5340\u7f8e\u6751\u8def\u4e00\u6bb5 149 \u5df7 11 \u865f","latitude":"24.15160950","longitude":"120.66224870","limited_time":"","socket":"yes","standing_desk":"no","mrt":"","open_time":"11:00\u201320:30"},{"id":"cd6b063a-dcc4-4a1f-89f1-6396c74b9eee","name":"\u6668\u5178\u5496\u5561\uff08\u5357\u5340\u4e8c\u5e97\uff09","city":"taichung","wifi":5,"seat":5,"quiet":5,"tasty":5,"cheap":5,"music":5,"url":"\u6668\u5178\u5496\u5561\uff08\u5357\u5340\u4e8c\u5e97\uff09","address":"\u53f0\u4e2d\u5e02\u5357\u5340\u5fa9\u8208\u8def\u4e00\u6bb5265\u865f","latitude":"24.11276930","longitude":"120.65182670","limited_time":"yes","socket":"maybe","standing_desk":"no","mrt":"","open_time":""},{"id":"cd75175c-9f01-488e-9038-c4e89b00f76a","name":"Mono Villa \/ \u7368\u5885 \u9020\u5561\u57fa","city":"taichung","wifi":0,"seat":0,"quiet":0,"tasty":0,"cheap":0,"music":0,"url":"https:\/\/www.facebook.com\/MonoVilla.Taiwan\/?fref=ts","address":"402\u53f0\u4e2d\u5e02\u5357\u5340\u8208\u5927\u8def72\u865f","latitude":"24.12433900","longitude":"120.68163600","limited_time":"","socket":"","standing_desk":"","mrt":"","open_time":"15:00-23:00"},{"id":"ceeb0529-225f-4e62-87e4-1d65d3a0657a","name":"Create Cafe","city":"taichung","wifi":5,"seat":5,"quiet":5,"tasty":5,"cheap":5,"music":5,"url":"https:\/\/www.facebook.com\/cc.cafe.create","address":"\u53f0\u4e2d\u5e02\u897f\u5340\u53f0\u7063\u5927\u9053\u4e8c\u6bb5349\u865f","latitude":"24.15406930","longitude":"120.66470470","limited_time":"no","socket":"yes","standing_desk":"yes","mrt":"","open_time":"\u4e0d\u5b9a\u671f\u516c\u4f11"},{"id":"cf745fdb-f6ae-42ec-8f5e-e49d93da50f9","name":"\u8993\u90f5\u5496\u5561","city":"taichung","wifi":0,"seat":0,"quiet":0,"tasty":0,"cheap":0,"music":0,"url":"https:\/\/www.facebook.com\/MIYOcoffee2019\/?modal=admin_todo_tour","address":"\u53f0\u4e2d\u5e02\u4e2d\u5340\u5149\u5fa9\u8def14\u865f","latitude":"24.14021300","longitude":"120.68545490","limited_time":"no","socket":"yes","standing_desk":"no","mrt":"","open_time":""},{"id":"cf7d4ebb-b23e-4932-a38e-5e7788f0cff2","name":"The Factory- Mojocoffee","city":"taichung","wifi":5,"seat":5,"quiet":4,"tasty":4,"cheap":3,"music":5,"url":"https:\/\/www.facebook.com\/The-Factory-Mojocoffee-272695802751148\/","address":"\u53f0\u4e2d\u5e02\u897f\u5340\u7cbe\u8aa0\u516d\u885722\u865f","latitude":"24.15492010","longitude":"120.65709390","limited_time":"yes","socket":"no","standing_desk":"yes","mrt":"","open_time":""},{"id":"cf9b6157-74ba-42ea-a6ad-49a0cad66aff","name":"Simone Cafe","city":"taichung","wifi":5,"seat":5,"quiet":5,"tasty":5,"cheap":5,"music":5,"url":"https:\/\/www.facebook.com\/simonecafe\/?fref=ts","address":"\u53f0\u4e2d\u5e02\u53f0\u4e2d\u5e02\u7518\u8085\u8def\u4e00\u6bb581-1\u865f","latitude":"24.16636890","longitude":"120.65844000","limited_time":"no","socket":"maybe","standing_desk":"no","mrt":"","open_time":"\u4e0d\u5b9a\u6642"},{"id":"d20c01ce-e1a8-4182-9bec-471e3d32e0df","name":"AShare Cafe \u65c5\u4eba\u6545\u4e8b\u5496\u5561\u9928","city":"taichung","wifi":5,"seat":4,"quiet":4,"tasty":5,"cheap":5,"music":5,"url":"https:\/\/linktr.ee\/ashare.cafe","address":"\u53f0\u4e2d\u5e02\u897f\u5340\u6c11\u751f\u5317\u8def20\u865f","latitude":"24.14514490","longitude":"120.66879600","limited_time":"maybe","socket":"maybe","standing_desk":"no","mrt":"","open_time":""},{"id":"d2cfeadd-a04c-4461-ae13-e18a694521ac","name":"ExpertCAFE","city":"taichung","wifi":0,"seat":5,"quiet":4,"tasty":5,"cheap":3,"music":5,"url":"https:\/\/www.facebook.com\/Expertcafe.fans\/","address":"\u53f0\u4e2d\u5e02\u897f\u5c6f\u5340\u4e0a\u77f3\u8def116\u865f","latitude":"24.16927840","longitude":"120.64485050","limited_time":"no","socket":"yes","standing_desk":"no","mrt":"","open_time":""},{"id":"d33f2b9c-b1f1-4eed-b2c1-446f2a607bbc","name":"\u6a02\u5728\u5176\u4e2d","city":"taichung","wifi":5,"seat":5,"quiet":5,"tasty":5,"cheap":5,"music":5,"url":"https:\/\/www.facebook.com\/lecafe88\/","address":"41150\u53f0\u4e2d\u5e02\u592a\u5e73\u5340\u982d\u6c74\u91cc\u5317\u7530\u8def30\u5df765\u865f","latitude":"24.12274600","longitude":"120.75482000","limited_time":"","socket":"maybe","standing_desk":"no","mrt":"","open_time":"\u9031\u4e00\u5e97\u4f11 13\uff1a00\uff5e21\uff1a00 \u9700\u9810\u7d04 \u4e0d\u958b\u653e\u5c0f\u5b69\u8207\u5bf5\u7269"},{"id":"d3512add-1ec5-4ce9-91f6-9c69e85df895","name":"\u742a\u7389\u5496\u5561","city":"taichung","wifi":5,"seat":5,"quiet":5,"tasty":5,"cheap":5,"music":5,"url":"https:\/\/www.facebook.com\/chiyucoffee\/","address":"\u53f0\u4e2d\u5e02\u8c50\u539f\u5340\u4e2d\u8208\u8def232\u865f1\u6a13","latitude":"24.24670710","longitude":"120.71161880","limited_time":"maybe","socket":"maybe","standing_desk":"yes","mrt":"","open_time":"\u7981\u5e36\u5bf5\u7269(\u5c0e\u76f2\u72ac\u9664\u5916)"},{"id":"d35e48c8-228d-4667-945c-eaf8cd3fbc44","name":"\u66f4\u8fed\u5496\u5561","city":"taichung","wifi":5,"seat":5,"quiet":5,"tasty":5,"cheap":5,"music":5,"url":"https:\/\/www.facebook.com\/cafealternation\/","address":"\u592a\u5e73\u5340\u65b0\u5e73\u8def\u4e00\u6bb5138\u5df71\u865f","latitude":"24.13289300","longitude":"120.71690700","limited_time":"no","socket":"maybe","standing_desk":"yes","mrt":"","open_time":""},{"id":"d4ad4529-8b9e-4ee3-b04c-5849c203ca78","name":"3-15\u73c8\u7432\u9928","city":"taichung","wifi":0,"seat":0,"quiet":0,"tasty":0,"cheap":0,"music":0,"url":"","address":"\u53f0\u4e2d\u5e02\u6771\u52e2\u5340\u6771\u862d\u8def\u897f\u9580\u5df73-15\u865f","latitude":"24.26955700","longitude":"120.82497120","limited_time":"no","socket":"maybe","standing_desk":"yes","mrt":"","open_time":""},{"id":"d5788671-58e4-4f41-a4ab-ecc1671b0cc3","name":"\u7b96GA B","city":"taichung","wifi":5,"seat":5,"quiet":4,"tasty":5,"cheap":4.5,"music":4.5,"url":"","address":"\u53f0\u4e2d\u5e02\u5317\u5c6f\u5340\u5317\u5c6f\u8def409-9\u865f","latitude":"24.17426800","longitude":"120.69831380","limited_time":"","socket":"","standing_desk":"","mrt":"","open_time":""},{"id":"d5de7423-e31f-47b3-a74e-823e82dd243f","name":"FIKA Kaffe","city":"taichung","wifi":5,"seat":3,"quiet":3,"tasty":5,"cheap":4,"music":5,"url":"https:\/\/www.facebook.com\/fika.kaffe","address":"\u53f0\u4e2d\u5e02\u5317\u5340\u9032\u5316\u5317\u8def361\u865f","latitude":"24.16298440","longitude":"120.67988210","limited_time":"no","socket":"maybe","standing_desk":"yes","mrt":"","open_time":"\u9031\u4e00\u516c\u4f11"},{"id":"d61a9ec1-5517-49ac-aaa8-1c2f639c5e16","name":"35\u5df7\u5496\u5561","city":"taichung","wifi":0,"seat":0,"quiet":0,"tasty":0,"cheap":0,"music":0,"url":"","address":"\u53f0\u4e2d\u5e02\u5357\u5340\u8208\u5927\u8def35\u5df78\u865f8 \u865f","latitude":"24.12434200","longitude":"120.68459700","limited_time":"","socket":"maybe","standing_desk":"","mrt":"","open_time":"1300-1800"},{"id":"d633bc89-1dd5-4cd8-9dae-dd9841a0e7c9","name":"\u65b0\u92b3\u5496\u5561\u4e94\u6b0a\u7f8e\u8853\u5e97","city":"taichung","wifi":5,"seat":5,"quiet":4,"tasty":5,"cheap":4,"music":4,"url":"https:\/\/www.facebook.com\/pages\/%E6%96%B0%E9%8A%B3%E5%92%96%E5%95%A1%E4%BA%94%E6%AC%8A%E7%BE%8E%E8%A1%93%E5%BA%97\/392234117903222","address":"403\u53f0\u4e2d\u5e02\u897f\u5340\u4e94\u6b0a\u8def2-171","latitude":"24.13563990","longitude":"120.66596200","limited_time":"no","socket":"maybe","standing_desk":"no","mrt":"","open_time":""},{"id":"d879daf0-fe61-469d-9150-5ae356e1cf44","name":"A1 COFFEE","city":"taichung","wifi":0,"seat":0,"quiet":5,"tasty":5,"cheap":4,"music":4,"url":"","address":"\u53f0\u4e2d\u5e02\u897f\u5c6f\u5340\u798f\u5eb7\u8def119\u5df731\u865f","latitude":"24.18624330","longitude":"120.61724760","limited_time":"","socket":"no","standing_desk":"","mrt":"","open_time":""},{"id":"d99360c2-d9e4-4bfd-853a-ad3165a8e8e1","name":"Bear's marsh","city":"taichung","wifi":5,"seat":5,"quiet":5,"tasty":5,"cheap":5,"music":5,"url":"http:\/\/www.bearsmarsh.com","address":"\u53f0\u4e2d\u5e02\u897f\u5340\u7f8e\u6751\u8def\u4e00\u6bb5771\u5df76\u865f","latitude":"24.13295390","longitude":"120.66221100","limited_time":"no","socket":"maybe","standing_desk":"","mrt":"","open_time":"\u9031\u4e8c\uff5e\u65e5\uff1a11:00 - 18:00 \u9031\u4e00\u516c\u4f11"},{"id":"d9e6c523-58d5-4a8e-8ee7-997447eeceea","name":"\u8457\u624b\u5496\u5561 Coffee Intro","city":"taichung","wifi":0,"seat":0,"quiet":0,"tasty":0,"cheap":0,"music":0,"url":"https:\/\/www.coffeeintro.com\/","address":"403 \u53f0\u4e2d\u5e02\u897f\u5340\u5411\u4e0a\u5317\u8def224\u5df721\u865f","latitude":"24.14850680","longitude":"120.65937340","limited_time":"maybe","socket":"maybe","standing_desk":"no","mrt":"","open_time":""},{"id":"da28b1a7-8d2d-4557-870e-7096914ea45b","name":"\u8cf4\u5728\u5496\u5561","city":"taichung","wifi":5,"seat":4,"quiet":5,"tasty":4.5,"cheap":3.5,"music":4,"url":"https:\/\/www.facebook.com\/aTraintoCafe\/?fref=ts","address":"\u53f0\u4e2d\u5e02\u5927\u91cc\u5340\u6587\u5316\u8857106\u5df71\u865f","latitude":"24.09072660","longitude":"120.69977910","limited_time":"no","socket":"maybe","standing_desk":"no","mrt":"","open_time":"11:00 - 21:00"},{"id":"da58e8aa-6b2a-4c46-9943-2a5a55014822","name":"\u5496\u5561\u4efb\u52d9 Cafe Task","city":"taichung","wifi":4,"seat":4,"quiet":3,"tasty":4,"cheap":4,"music":4,"url":"https:\/\/www.facebook.com\/CafeTask\/","address":"402\u5357\u5340\u5fe0\u660e\u5357\u8def789\u865f36\u6a13","latitude":"24.12330230","longitude":"120.66097930","limited_time":"","socket":"","standing_desk":"yes","mrt":"","open_time":""},{"id":"db29977a-d30a-456e-9a11-a9bf67096d60","name":"E.H coffee studio","city":"taichung","wifi":0,"seat":0,"quiet":0,"tasty":0,"cheap":0,"music":0,"url":"E.H coffee studio\u5496\u5561\u5de5\u4f5c\u5ba4","address":"\u53f0\u4e2d\u5e02\u5357\u5340\u5d07\u502b\u885713\u865f\uff08\u82b3\u5948\u70d8\u7119\u574a\u5167\uff09","latitude":"24.12937890","longitude":"120.65842100","limited_time":"no","socket":"maybe","standing_desk":"no","mrt":"","open_time":"19\uff1a00\u5f8c\u63a1\u9810\u7d04\u5236"},{"id":"dbb6e075-fe5d-4b11-b6c3-e6e3eda8440a","name":"\u7cdf\u8001\u982d\u5496\u5561","city":"taichung","wifi":5,"seat":5,"quiet":5,"tasty":5,"cheap":4,"music":5,"url":"https:\/\/www.facebook.com\/geezercoffee\/","address":"408\u53f0\u4e2d\u5e02\u5357\u5c6f\u5340\u516c\u76ca\u8def\u4e8c\u6bb5296\u865f","latitude":"24.15137890","longitude":"120.64175630","limited_time":"no","socket":"yes","standing_desk":"yes","mrt":"","open_time":""},{"id":"ded0144c-4ec0-4ec2-b743-36aaaef4a86d","name":"\u767c\u5149\u7684\u77f3\u982d","city":"taichung","wifi":5,"seat":5,"quiet":5,"tasty":5,"cheap":5,"music":5,"url":"https:\/\/www.facebook.com\/stonedinparadise.cafe\/","address":"\u53f0\u4e2d\u5e02\u897f\u5340\u4e94\u6b0a\u8def2-46\u865f","latitude":"24.14114370","longitude":"120.66736540","limited_time":"maybe","socket":"maybe","standing_desk":"no","mrt":"","open_time":"\u66ab\u6642\u672a\u5b9a\u4f11"},{"id":"df18073f-3ccb-42ef-8d6d-d671b939b189","name":"Rose cafe \u7f85\u6c0f\u5496\u5561","city":"taichung","wifi":0,"seat":0,"quiet":0,"tasty":0,"cheap":0,"music":0,"url":"","address":"436\u53f0\u4e2d\u5e02\u6e05\u6c34\u5340\u5317\u5be7\u88574\u865f","latitude":"24.27164400","longitude":"120.57884200","limited_time":"","socket":"","standing_desk":"","mrt":"","open_time":""},{"id":"e0009803-9a8b-472c-b825-478aafd46a76","name":"Le Mods","city":"taichung","wifi":0,"seat":0,"quiet":0,"tasty":0,"cheap":0,"music":0,"url":"https:\/\/www.facebook.com\/lemodscafe\/","address":"\u53f0\u4e2d\u5e02\u5317\u5340\u592a\u539f\u8def\u4e8c\u6bb5201\u865f","latitude":"24.16551800","longitude":"120.68123100","limited_time":"","socket":"","standing_desk":"","mrt":"","open_time":""},{"id":"e10ef2e8-9a4e-4728-989e-940d44628ad4","name":"J Coffee \u5091\u54c1\u5496\u5561","city":"taichung","wifi":0,"seat":0,"quiet":0,"tasty":0,"cheap":0,"music":0,"url":"https:\/\/www.facebook.com\/jcoffee123\/","address":"\u53f0\u4e2d\u5e02\u4e2d\u5340\u96d9\u5341\u8def\u4e00\u6bb535-14\u865f","latitude":"24.14224400","longitude":"120.68552500","limited_time":"maybe","socket":"yes","standing_desk":"no","mrt":"","open_time":""},{"id":"e33cab60-4c64-4913-9eeb-488351cb7fd2","name":"\u5e78\u798f\u65c5\u884c","city":"taichung","wifi":0,"seat":0,"quiet":0,"tasty":0,"cheap":0,"music":0,"url":"","address":"\u5411\u967d\u8def6\u5df77\u865f","latitude":"24.25151400","longitude":"120.72118300","limited_time":"","socket":"","standing_desk":"","mrt":"","open_time":""},{"id":"e430a9fb-6079-4afe-ac8b-639b2c79fbea","name":"\u7f8a\u6bdb\u99ac\u8def\u5496\u5561","city":"taichung","wifi":4.5,"seat":4.5,"quiet":4.5,"tasty":5,"cheap":4,"music":5,"url":"https:\/\/www.facebook.com\/woolroad\/","address":"\u53f0\u4e2d\u5e02\u5317\u5340\u539f\u5b50\u8857154\u865f","latitude":"24.14893700","longitude":"120.67697040","limited_time":"no","socket":"yes","standing_desk":"yes","mrt":"","open_time":""},{"id":"e51c2a3c-5404-4375-8c2f-3f090a61f49a","name":"\u5167\u5df7X\u80e1\u540c\u5496\u5561","city":"taichung","wifi":5,"seat":5,"quiet":5,"tasty":5,"cheap":4,"music":5,"url":"https:\/\/www.facebook.com\/7143coffee","address":"403\u53f0\u4e2d\u5e02\u897f\u5340\u7cbe\u8aa0\u4e5d\u885716\u5df73\u865f","latitude":"24.15332300","longitude":"120.65677790","limited_time":"no","socket":"maybe","standing_desk":"","mrt":"","open_time":"13\uff1a00-22\uff1a00"},{"id":"e538068c-c6db-4967-aa48-e2a6b36126c0","name":"Coffee & People","city":"taichung","wifi":3.5,"seat":3,"quiet":3,"tasty":5,"cheap":3.5,"music":4,"url":"https:\/\/www.facebook.com\/coffee.people.coffee\/","address":"\u53f0\u4e2d\u5e02\u897f\u5340\u5411\u4e0a\u8def\u4e00\u6bb579\u5df766\u5f0421\u865f","latitude":"24.14500140","longitude":"120.66356440","limited_time":"no","socket":"yes","standing_desk":"no","mrt":"","open_time":"\u5e73\u65e512:00-19:00 \u5047\u65e510:00-19:00"},{"id":"e56f4e8a-14ee-4314-bacb-c030e4d05182","name":"8\u8c46\u73c8\u7432","city":"taichung","wifi":5,"seat":5,"quiet":5,"tasty":5,"cheap":4,"music":4,"url":"https:\/\/m.facebook.com\/8beans\/?locale2=zh_TW","address":"403\u53f0\u4e2d\u5e02\u897f\u5340\u4e94\u6b0a\u897f\u516d\u885793\u865f","latitude":"24.13722350","longitude":"120.65890000","limited_time":"maybe","socket":"yes","standing_desk":"no","mrt":"","open_time":""},{"id":"e5829bc1-1cd8-4859-a075-30945473e994","name":"\u77f3\u5c1a\u81ea\u7136\u63a2\u7d22\u5c4b \u79d1\u535a\u5e97","city":"taichung","wifi":5,"seat":3,"quiet":3,"tasty":5,"cheap":3,"music":0,"url":"http:\/\/web.shishang.com.tw\/index.php","address":"\u53f0\u4e2d\u5e02\u5317\u5340\u9928\u524d\u8def1\u865f(\u570b\u7acb\u81ea\u7136\u79d1\u5b78\u535a\u7269\u9928 \u690d\u7269\u5712B1)","latitude":"24.15811570","longitude":"120.66817770","limited_time":"","socket":"","standing_desk":"","mrt":"","open_time":""},{"id":"e59d30d2-5ba4-4647-821b-50f7197c40b9","name":"The CURVE Coffee Roasting Co.","city":"taichung","wifi":5,"seat":5,"quiet":5,"tasty":5,"cheap":4,"music":5,"url":"https:\/\/www.facebook.com\/thecurvecoffee","address":"\u53f0\u4e2d\u5e02\u897f\u5c6f\u5340\u9ece\u660e\u8def\u4e8c\u6bb5912-1\u865f","latitude":"24.16542080","longitude":"120.63488900","limited_time":"no","socket":"maybe","standing_desk":"yes","mrt":"","open_time":"12:00~20:00"},{"id":"e5c965da-f628-4a37-b04c-aa52b971ed3d","name":"\u73b3\u5c28\u98f2 Daimon Drink","city":"taichung","wifi":0,"seat":5,"quiet":5,"tasty":5,"cheap":5,"music":4,"url":"https:\/\/m.facebook.com\/DaimonDrink\/?locale2=zh_TW","address":"\u53f0\u4e2d\u5e02\u5357\u5340\u798f\u5fb7\u8857142\u865f","latitude":"24.12341390","longitude":"120.66457290","limited_time":"no","socket":"no","standing_desk":"no","mrt":"","open_time":"\u5e97\u4f11\u6642\u9593\u4e0d\u56fa\u5b9a"},{"id":"e6382bfc-c939-4927-b9fc-94fe4ba5221d","name":"\u91c7\u5496\u5561 DACAI003 CAFE","city":"taichung","wifi":5,"seat":5,"quiet":4,"tasty":5,"cheap":4,"music":4,"url":"http:\/\/facebook.com\/dacaicafe50","address":"\u53f0\u4e2d\u5e02\u897f\u5340\u4e94\u6b0a\u4e94\u885750\u865f","latitude":"24.14504000","longitude":"120.67044800","limited_time":"maybe","socket":"yes","standing_desk":"yes","mrt":"","open_time":"08:30-21:00"},{"id":"e6461dd5-668b-4b45-99c9-15463c9d7d6f","name":"\u5496\u5561\u9053","city":"taichung","wifi":5,"seat":5,"quiet":5,"tasty":5,"cheap":5,"music":5,"url":"","address":"\u53f0\u4e2d\u5e02\u897f\u5340\u4e94\u6b0a\u897f\u516d\u88572\u865f","latitude":"24.13956630","longitude":"120.65872120","limited_time":"maybe","socket":"yes","standing_desk":"no","mrt":"","open_time":"13:00-22:30"},{"id":"e6832869-dc1a-41a5-b7bd-cf0bb429b248","name":"\u4e09\u6642\u8336\u623f","city":"taichung","wifi":4,"seat":4.5,"quiet":4,"tasty":4.5,"cheap":5,"music":5,"url":"https:\/\/www.facebook.com\/30almonds\/","address":"\u53f0\u4e2d\u5e02\u5317\u5340\u592a\u5e73\u8def107\u5df711\u865f","latitude":"24.14803610","longitude":"120.68276400","limited_time":"maybe","socket":"no","standing_desk":"no","mrt":"","open_time":"13:00 - 21:30"},{"id":"e6a3629e-09cc-4508-b159-87369cdd4dac","name":"Deer Caf'e","city":"taichung","wifi":0,"seat":0,"quiet":0,"tasty":0,"cheap":0,"music":0,"url":"https:\/\/www.facebook.com\/deercafe\/","address":"\u53f0\u4e2d\u5e02\u5317\u5340\u96d9\u5341\u8def\u4e8c\u6bb51\u5df72\u865f","latitude":"24.15155720","longitude":"120.68786290","limited_time":"","socket":"","standing_desk":"","mrt":"","open_time":""},{"id":"e7b394f5-9ee3-4aa0-b1bc-ae874753c29e","name":"Allo Friend","city":"taichung","wifi":5,"seat":4.5,"quiet":3,"tasty":4.5,"cheap":3.5,"music":3.5,"url":"https:\/\/www.facebook.com\/Allofriend","address":"\u53f0\u4e2d\u5e02\u897f\u5340\u83ef\u7f8e\u885739\u865f","latitude":"24.14189240","longitude":"120.65876130","limited_time":"","socket":"","standing_desk":"","mrt":"","open_time":"11:00 - 22:00\uff0c\u6bcf\u661f\u671f\u4e8c\u516c\u4f11"},{"id":"e855e401-0dc0-41ba-aeda-9daf6d4b99f0","name":"Louisa Coffee \u8def\u6613\uff0e\u838e\u5496\u5561(\u9022\u7532\u798f\u661f\u5e97)","city":"taichung","wifi":5,"seat":3,"quiet":1.5,"tasty":3.5,"cheap":4.5,"music":4,"url":"https:\/\/www.facebook.com\/louisacoffeepark\/?hc_ref=SEARCH","address":"\u53f0\u4e2d\u5e02\u897f\u5c6f\u5340\u6cb3\u5357\u8def2\u6bb5301\u5df772\u865f","latitude":"24.17196620","longitude":"120.64834140","limited_time":"no","socket":"yes","standing_desk":"no","mrt":"","open_time":""},{"id":"e8edac9a-c7fe-46b3-88dd-9548342d2183","name":"94icafe\u9032\u5316\u5e97","city":"taichung","wifi":0,"seat":5,"quiet":5,"tasty":5,"cheap":5,"music":5,"url":"www.facebook.com\/94icafe.jinhua","address":"\u53f0\u4e2d\u5e02\u5317\u5340\u9032\u5316\u8def577\u4e4b8\u865f","latitude":"24.15979560","longitude":"120.69415720","limited_time":"no","socket":"no","standing_desk":"no","mrt":"","open_time":""},{"id":"e9fd692a-480a-4536-a51a-ff88c3876638","name":"BOZZ COFFEE\u61f6\u4eba\u5496\u5561\u9928","city":"taichung","wifi":4,"seat":5,"quiet":4,"tasty":5,"cheap":4,"music":4,"url":"","address":"\u53f0\u4e2d\u5e02\u897f\u5340\u4e2d\u8208\u8857122\u5df716\u865f","latitude":"24.14824650","longitude":"120.66406160","limited_time":"no","socket":"no","standing_desk":"no","mrt":"","open_time":""},{"id":"ea443b56-7c55-4fb6-a702-3d15a92ccb94","name":"\u96f2\u9053\u5496\u5561 \u68ee\u9580\u5e02","city":"taichung","wifi":5,"seat":4,"quiet":5,"tasty":5,"cheap":0,"music":0,"url":"https:\/\/zh-tw.facebook.com\/coffeetree.king\/","address":"\u53f0\u4e2d\u5e02\u5927\u58a9\u5341\u4e5d\u8857101\u865f","latitude":"24.15721910","longitude":"120.65372330","limited_time":"no","socket":"maybe","standing_desk":"no","mrt":"","open_time":""},{"id":"ec1bd6c5-04d1-45d9-96d2-6195d8c5a9b8","name":"\u6ce2\u9b6f\u514b\u5287\u5834","city":"taichung","wifi":5,"seat":5,"quiet":5,"tasty":4,"cheap":4,"music":5,"url":"https:\/\/www.facebook.com\/Porcotheater\/","address":"\u53f0\u4e2d\u5e02\u897f\u5340\u6607\u5e73\u885735\u865f","latitude":"24.14547900","longitude":"120.66317800","limited_time":"","socket":"yes","standing_desk":"no","mrt":"","open_time":""},{"id":"ed3421d8-ad12-472c-9b14-a786ce708f3c","name":"\u6a02\u6a02\u66f8\u5c4b LELE BOOKS HOUSE","city":"taichung","wifi":5,"seat":4,"quiet":4,"tasty":4,"cheap":4,"music":5,"url":"https:\/\/www.facebook.com\/cpstylele\/","address":"\u53f0\u4e2d\u5e02\u897f\u5c6f\u5340\u7389\u6210\u8def6\u865f","latitude":"24.17693340","longitude":"120.61973530","limited_time":"no","socket":"maybe","standing_desk":"no","mrt":"","open_time":""},{"id":"ed4bde27-f8aa-4015-a6fa-68534dc03b6c","name":"\u5c71\u6b65\u9928","city":"taichung","wifi":0,"seat":0,"quiet":0,"tasty":0,"cheap":0,"music":0,"url":"","address":"436\u53f0\u4e2d\u5e02\u6e05\u6c34\u5340\u9c32\u6d77\u8def59\u865f","latitude":"24.26908590","longitude":"120.58076570","limited_time":"","socket":"","standing_desk":"","mrt":"","open_time":""},{"id":"ed7b3aa7-de50-4540-8303-679ce7a194a2","name":"\u7a7a\u9593\u5496\u5561","city":"taichung","wifi":0,"seat":0,"quiet":0,"tasty":0,"cheap":0,"music":0,"url":"","address":"\u540e\u91cc\u5340\u5733\u5bee\u8def140\u865f","latitude":"24.31209920","longitude":"120.73312800","limited_time":"","socket":"","standing_desk":"","mrt":"","open_time":""},{"id":"ede9d004-4864-4aa9-b77e-e7369acebcba","name":"Chaud cafe \u4fee\u5496\u5561","city":"taichung","wifi":4,"seat":5,"quiet":4,"tasty":4,"cheap":5,"music":5,"url":"https:\/\/www.facebook.com\/chaudcofee\/","address":"\u53f0\u4e2d\u5e02\u9727\u5cf0\u5340\u6c11\u4e3b\u885771\u865f","latitude":"24.06807680","longitude":"120.70011120","limited_time":"no","socket":"yes","standing_desk":"yes","mrt":"","open_time":""},{"id":"ef4bc2bf-f935-44f3-a1f8-a9d9fe8359d7","name":"\u9187\u8c46\u5496\u5561_\u53f0\u4e2d\u65b0\u5149\u4e09\u8d8a\u6cd5\u96c5\u5ba2\u5e97","city":"taichung","wifi":4,"seat":3,"quiet":4,"tasty":4,"cheap":4,"music":4,"url":"","address":"\u53f0\u4e2d\u5e02\u897f\u5c6f\u5340\u53f0\u7063\u5927\u9053\u4e09\u6bb5301\u865f9\u6a13( \u65b0\u5149\u4e09\u8d8a\u6cd5\u96c5\u5ba2)","latitude":"24.16467580","longitude":"120.64338740","limited_time":"no","socket":"no","standing_desk":"yes","mrt":"","open_time":"11:00~21:45"},{"id":"ef551fb2-9a6d-4d60-bfdf-877e11615c98","name":"\u65e5\u884c\u751c\u9ede\u6587\u5b78\u5de5\u4f5c\u5ba4","city":"taichung","wifi":5,"seat":3.5,"quiet":5,"tasty":2.5,"cheap":2.5,"music":4,"url":"https:\/\/www.facebook.com\/rixingpatisserie\/","address":"\u53f0\u4e2d\u5e02\u592a\u5e73\u5340\u4e2d\u5c71\u8def\u4e8c\u6bb5477\u5df782\u5f044\u865f","latitude":"24.14821380","longitude":"120.72732050","limited_time":"","socket":"","standing_desk":"no","mrt":"","open_time":"\u6bcf\u9031\u4e94\u3001\u9031\u516d\u3001\u9031\u65e5\u3001\u9031\u4e00\uff0c12\uff1a00\u523020:00"},{"id":"ef848037-86da-49cb-8dad-d13b4320dee8","name":"hecho \u505a\u5496\u5561","city":"taichung","wifi":2,"seat":4,"quiet":1.5,"tasty":2,"cheap":3.5,"music":3.5,"url":"","address":"\u53f0\u4e2d\u5e02\u897f\u5340\u7f8e\u6751\u8def\u4e00\u6bb5133\u5df722\u865f","latitude":"24.15165190","longitude":"120.66254430","limited_time":"maybe","socket":"maybe","standing_desk":"no","mrt":"","open_time":""},{"id":"eff0802b-51a5-42cb-bad3-a1bb0f9fcd50","name":"\u6469\u5947\u5b89\u5a1cMOCHiana","city":"taichung","wifi":5,"seat":5,"quiet":5,"tasty":5,"cheap":4,"music":4,"url":"https:\/\/www.mochianacoffee.com\/","address":"\u53f0\u4e2d\u5e02\u677e\u7af9\u4e94\u8def43\u865f","latitude":"24.17516720","longitude":"120.71168050","limited_time":"no","socket":"maybe","standing_desk":"yes","mrt":"","open_time":""},{"id":"f0579e47-2f7b-419b-be83-b708140ed273","name":"\u718a\u597d\u9913\u5496\u5561","city":"taichung","wifi":5,"seat":5,"quiet":5,"tasty":5,"cheap":4.5,"music":4.5,"url":"https:\/\/www.facebook.com\/HowerBear\/","address":"\u53f0\u4e2d\u5e02\u897f\u5c6f\u5340\u798f\u4e0a\u5df7323\u5f0416\u865f ","latitude":"24.17471400","longitude":"120.64545100","limited_time":"","socket":"maybe","standing_desk":"yes","mrt":"","open_time":""},{"id":"f1b3ed84-94cd-47ba-b829-075cd93d17c6","name":"Come Late Caf'e","city":"taichung","wifi":0,"seat":0,"quiet":0,"tasty":0,"cheap":0,"music":0,"url":"","address":"403\u53f0\u4e2d\u5e02\u897f\u5340\u897f\u5c6f\u8def\u4e00\u6bb5173-10\u865f","latitude":"24.15374670","longitude":"120.66991170","limited_time":"maybe","socket":"maybe","standing_desk":"yes","mrt":"","open_time":""},{"id":"f42712b2-ca25-4ea0-b79a-772f7f0d91bc","name":"\u5742\u8857","city":"taichung","wifi":0,"seat":5,"quiet":5,"tasty":5,"cheap":5,"music":5,"url":"https:\/\/www.facebook.com\/suannkue\/","address":"\u53f0\u4e2d\u5e02\u6e05\u6c34\u5340\u5927\u8857\u8def82\u865f","latitude":"24.26754200","longitude":"120.57807600","limited_time":"no","socket":"maybe","standing_desk":"no","mrt":"","open_time":"12:00~21:00"},{"id":"f524afce-1fd8-46f0-8c07-99bcf51bba81","name":"\u672a\u592e musicaf\u00e9  \u5496\u5561\uff0e\u97f3\u6a02","city":"taichung","wifi":5,"seat":5,"quiet":5,"tasty":5,"cheap":5,"music":5,"url":"https:\/\/www.facebook.com\/pg\/endlessmusicafe\/about\/","address":"\u53f0\u4e2d\u5e02\u897f\u5c6f\u5340\u4e0a\u77f3\u5357\u516b\u5df742\u865f","latitude":"24.17495740","longitude":"120.64313470","limited_time":"no","socket":"maybe","standing_desk":"yes","mrt":"","open_time":"1300-2200"},{"id":"f592bac8-61b9-49f6-bad5-62517cd801d3","name":"2S Sweet&Special ","city":"taichung","wifi":0,"seat":0,"quiet":0,"tasty":0,"cheap":0,"music":0,"url":"","address":"\u53f0\u4e2d\u5e02\u897f\u5340\u6a21\u7bc4\u885735-1\u865f","latitude":"24.14997100","longitude":"120.66637900","limited_time":"","socket":"","standing_desk":"","mrt":"","open_time":""},{"id":"f660e07c-59d1-44c6-a990-9d1b19d4122f","name":"OZ Male \u5521\u7537","city":"taichung","wifi":5,"seat":3,"quiet":3,"tasty":5,"cheap":4,"music":4,"url":"","address":"40357\u53f0\u4e2d\u5e02\u897f\u5340\u4e2d\u5c71\u8def508\u865f1\u6a13","latitude":"24.14751140","longitude":"120.67207560","limited_time":"maybe","socket":"maybe","standing_desk":"yes","mrt":"","open_time":""},{"id":"f6be406b-806b-42c1-8bde-3ad0ae212e81","name":"\u54c1\u7687\u5496\u5561(\u6e05\u6c34\u4e2d\u83ef\u5e97)","city":"taichung","wifi":0,"seat":0,"quiet":0,"tasty":0,"cheap":0,"music":0,"url":"","address":"436\u53f0\u4e2d\u5e02\u6e05\u6c34\u5340\u4e2d\u83ef\u8def609\u4e4b3\u865f","latitude":"24.27733320","longitude":"120.57371360","limited_time":"","socket":"","standing_desk":"","mrt":"","open_time":""},{"id":"f6c1480b-b4ad-4ee0-974d-34c8bf1bc488","name":"\u6d1e\u7a74The Cave","city":"taichung","wifi":5,"seat":5,"quiet":5,"tasty":5,"cheap":4,"music":4,"url":"https:\/\/www.facebook.com\/TheCave.tw\/","address":"\u53f0\u4e2d\u5e02\u6771\u5340\u5fa9\u8208\u8def\u56db\u6bb537\u5df7\u5de6\u5074","latitude":"24.13567340","longitude":"120.68376470","limited_time":"no","socket":"maybe","standing_desk":"yes","mrt":"","open_time":"\u9031\u672b\u4e0d\u5b9a\u671f\u6709\u97f3\u6a02\u8868\u6f14"},{"id":"f7213480-bef2-4bb6-974f-0971e785f00d","name":"\u827e\u9e97\u5496\u5561 eri coffee","city":"taichung","wifi":5,"seat":5,"quiet":5,"tasty":5,"cheap":5,"music":5,"url":"https:\/\/www.facebook.com\/2009EriCoffee\/","address":"408\u53f0\u4e2d\u5e02\u5357\u5c6f\u5340\u5927\u58a9\u516d\u8857221\u865f\u4e00\u6a13","latitude":"0.00000000","longitude":"0.00000000","limited_time":"no","socket":"maybe","standing_desk":"yes","mrt":"","open_time":""},{"id":"f738a73c-2962-4bb8-8b0b-6fc1df9fb239","name":"apple","city":"taichung","wifi":0,"seat":0,"quiet":0,"tasty":0,"cheap":0,"music":0,"url":"","address":"\u53f0\u4e2d\u6771\u5340\u5927\u667a\u8def100\u865f","latitude":"24.13385420","longitude":"120.68908470","limited_time":"no","socket":"maybe","standing_desk":"yes","mrt":"","open_time":""},{"id":"f76c38d2-4155-43eb-bf2e-f74fa945759c","name":"\u5f15\u54c1 sorso \u98f2\u5ba4\u751f\u6d3b","city":"taichung","wifi":5,"seat":5,"quiet":5,"tasty":5,"cheap":4,"music":5,"url":"https:\/\/www.facebook.com\/sorsocoffee\/","address":"\u53f0\u4e2d\u5e02\u5317\u5340\u592a\u539f\u8def\u4e8c\u6bb5185\u865f1\u6a13","latitude":"24.16552280","longitude":"120.68025860","limited_time":"no","socket":"yes","standing_desk":"no","mrt":"","open_time":"\u5076\u6709\u7279\u6b8a\u5e97\u4f11\u6642\u9593\uff0c\u5e97\u5bb6 FB \u6703\u53e6\u5916\u516c\u544a"},{"id":"f7ffbf95-7e36-4a6c-a68a-687996e7c68e","name":"Coffeed back","city":"taichung","wifi":4.5,"seat":5,"quiet":4,"tasty":5,"cheap":5,"music":5,"url":"https:\/\/www.facebook.com\/Cofeed.back\/?modal=admin_todo_tour","address":"\u53f0\u4e2d\u5e02\u5357\u5340\u5fa9\u65b0\u885787\u5df78\u865f","latitude":"24.12441900","longitude":"120.67648700","limited_time":"maybe","socket":"yes","standing_desk":"yes","mrt":"","open_time":"\u901a\u5e38\u90fd\u6703\u71df\u696d\u5230\u66f4\u665a"},{"id":"f88b77fb-6b9f-4e9a-91c0-e1f0d7732f17","name":"\u65e5\u67d3\u6a39\u68a2-\u9280\u5869\u5199\u771f\u96dc\u8ca8","city":"taichung","wifi":0,"seat":0,"quiet":0,"tasty":0,"cheap":0,"music":0,"url":"","address":"413\u53f0\u4e2d\u5e02\u9727\u5cf0\u5340\u4e2d\u6b63\u8def573-12\u865f","latitude":"24.04921850","longitude":"120.69364240","limited_time":"no","socket":"maybe","standing_desk":"yes","mrt":"","open_time":""},{"id":"f9563c17-2bd0-4745-bce2-8c3d6c614217","name":"\u79be\u679c\u5496\u5561 FruitCoffee","city":"taichung","wifi":5,"seat":5,"quiet":5,"tasty":5,"cheap":5,"music":5,"url":"https:\/\/bio.site\/bGw5Zm","address":"\u53f0\u4e2d\u5e02\u897f\u5c6f\u5340\u6f22\u7fd4\u8def256\u865f","latitude":"24.18523140","longitude":"120.64072540","limited_time":"no","socket":"yes","standing_desk":"yes","mrt":"","open_time":""},{"id":"f9da880a-3d3a-47e0-aded-75f9e27bd0c7","name":"T\u2019s Bookstore \u66f8\u5e97","city":"taichung","wifi":0,"seat":5,"quiet":4,"tasty":5,"cheap":5,"music":5,"url":"T\u2019s\u66f8\u5e97","address":"\u53f0\u4e2d\u5e02\u9f8d\u4e95\u5340\u65b0\u8208\u8def2\u5df72-1\u865f1\u6a13","latitude":"24.18105690","longitude":"120.59232260","limited_time":"no","socket":"no","standing_desk":"no","mrt":"","open_time":""},{"id":"fa17e85f-c726-45bb-8cdd-6ab3dde28a69","name":"Brewsome Coffee","city":"taichung","wifi":5,"seat":5,"quiet":5,"tasty":4.5,"cheap":3.5,"music":4.5,"url":"https:\/\/www.facebook.com\/BrewsomeCoffeeTW\/","address":"\u53f0\u4e2d\u5e02\u5357\u5c6f\u5340\u5927\u58a9\u56db\u8857316\u865f","latitude":"24.14112350","longitude":"120.64734410","limited_time":"no","socket":"yes","standing_desk":"yes","mrt":"","open_time":""},{"id":"fa2e7d1e-47fa-42d3-aa6e-0f3a8f765d88","name":"Cupgaze","city":"taichung","wifi":4,"seat":4,"quiet":4.5,"tasty":4.5,"cheap":4.5,"music":4.5,"url":"https:\/\/www.facebook.com\/cupgaze\/","address":"\u53f0\u4e2d\u5e02\u5317\u5340\u535a\u9928\u4e00\u885713\u865f","latitude":"24.15495810","longitude":"120.66755420","limited_time":"","socket":"yes","standing_desk":"yes","mrt":"","open_time":""},{"id":"fe39ab41-49a1-427e-9771-0ec8f60f6f25","name":"Yosano\u4e0e\u8b1d\u91ce\u76f4\u706b\u70d8\u7119\u5496\u5561\u5de5\u4f5c\u5ba4","city":"taichung","wifi":5,"seat":5,"quiet":5,"tasty":5,"cheap":4.5,"music":5,"url":"https:\/\/www.facebook.com\/yosanozikabi\/","address":"\u53f0\u4e2d\u5e02\u897f\u5340\u81ea\u6cbb\u8857242\u865f","latitude":"24.14350300","longitude":"120.66750800","limited_time":"no","socket":"maybe","standing_desk":"no","mrt":"","open_time":""},{"id":"feb15726-763f-41af-ba57-9de13c66502f","name":"\u8001\u8c93\u86cb\u6372\u5496\u5561","city":"taichung","wifi":5,"seat":5,"quiet":5,"tasty":5,"cheap":5,"music":5,"url":"https:\/\/www.facebook.com\/oldcateggroll","address":"\u53f0\u4e2d\u5e02\u897f\u5c6f\u5340\u570b\u5b89\u4e00\u8def125\u865f","latitude":"24.19125700","longitude":"120.61300000","limited_time":"no","socket":"yes","standing_desk":"yes","mrt":"","open_time":"\u4e2d\u534812\u9ede~\u665a\u4e0a8\u9ede"}]